     2.11           OBSERVATION DATA    G (GPS)             RINEX VERSION / TYPE
teqc  2017Sep15                         20210202 00:31:15UTCPGM / RUN BY / DATE
Linux 2.4.21-27.ELsmp|Opteron|gcc -static|Linux 64|=+       COMMENT
BIT 2 OF LLI FLAGS DATA COLLECTED UNDER A/S CONDITION       COMMENT
KGNI                                                        MARKER NAME
21704S005                                                   MARKER NUMBER
ICHIKAWA R.         NICT                                    OBSERVER / AGENCY
4731136224          TRIMBLE NETRS       1.3-2               REC # / TYPE / VERS
CR520000107         ASH701945C_M    SCIS                    ANT # / TYPE
 -3941949.1592  3368156.3546  3702214.8303                  APPROX POSITION XYZ
        0.0000        0.0000        0.0000                  ANTENNA: DELTA H/E/N
     1     1                                                WAVELENGTH FACT L1/2
     6    L1    L2    C1    P2    S1    S2                  # / TYPES OF OBSERV
    30.0000                                                 INTERVAL
    18                                                      LEAP SECONDS
 SNR is mapped to RINEX snr flag value [0-9]                COMMENT
  L1 & L2: min(max(int(snr_dBHz/6), 0), 9)                  COMMENT
  2021     2     1     0     0    0.0000000     GPS         TIME OF FIRST OBS
                                                            END OF HEADER
 21  2  1  0  0  0.0000000  0  8G23G18G15G24G12G13G10G20
 -21199441.00047 -15764792.58646  20382809.5864   20382805.6024         46.2504
        41.0004
  -5672283.80546  -3754670.39843  23145254.9304   23145251.0234         40.0004
        23.7504
 -16939033.86747 -13137737.28946  20974601.6094   20974597.6214         46.2504
        38.2504
 -21724998.51247 -16747261.36748  20003340.6334   20003338.5434         47.0004
        53.7504
  -7901976.13746  -5725390.94945  22047477.5314   22047473.2194         41.5004
        31.5004
  -2759570.55546   -743892.82442  23869098.8364   23869095.1484         36.2504
        15.5004
 -12399858.29347  -8939475.74647  22356609.3444   22356607.7814         43.0004
        43.5004
 -21436500.97747 -15340027.49246  20220608.9614   20220604.6414         45.2504
        40.2504
 21  2  1  0  0 30.0000000  0  8G23G18G15G24G12G13G10G20
 -21227439.73047 -15786609.78546  20377481.5234   20377477.6604         45.2504
        40.0004
  -5591228.88746  -3691510.74644  23160678.7424   23160674.8594         40.2504
        25.0004
 -16893497.93747 -13102254.77346  20983266.9304   20983262.9414         47.0004
        38.5004
 -21693130.23847 -16722428.94548  20009404.8284   20009403.0944         47.7504
        53.7504
  -7993054.91447  -5796361.41845  22030145.3284   22030141.6484         42.0004
        32.5004
  -2684139.73845   -685115.61342  23883452.9774   23883449.4924         35.7504
        17.2504
 -12485873.47347  -9006500.55947  22340241.5554   22340240.1914         43.0004
        44.2504
 -21454761.90247 -15354256.81646  20217133.9924   20217129.7624         46.0004
        40.0004
 21  2  1  0  1  0.0000000  0  8G23G18G15G24G12G13G10G20
 -21254899.02747 -15808006.66046  20372256.0164   20372252.3594         46.0004
        40.5004
  -5509976.86746  -3628197.49644  23176140.1724   23176136.3914         39.0004
        24.7504
 -16847708.98047 -13066575.07846  20991980.1484   20991976.2774         46.5004
        38.5004
 -21660860.79747 -16697283.92648  20015545.4694   20015543.6994         47.5004
        53.7504
  -8083812.19147  -5867081.36745  22012875.4224   22012870.9224         43.7504
        32.5004
  -2608644.57446   -626288.19942  23897819.3984   23897815.2154         37.5004
        16.2504
 -12571593.34047  -9073295.26247  22323929.4534   22323927.2424         42.7504
        44.0004
 -21472438.18447 -15368030.54746  20213770.2664   20213766.2344         47.2504
        40.0004
 21  2  1  0  1 30.0000000  0  8G23G18G15G24G12G13G10G20
 -21281817.36347 -15828982.00046  20367134.1804   20367129.7894         46.7504
        40.2504
  -5428530.90246  -3564733.14844  23191638.7114   23191636.2274         39.7504
        26.2504
 -16801666.69947 -13030698.00446  21000741.5554   21000737.3444         46.0004
        38.0004
 -21628192.29747 -16671827.96948  20021762.2974   20021760.6254         47.5004
        53.5004
  -8174245.00447  -5937548.48845  21995666.9144   21995662.0164         43.7504
        33.0004
  -2533084.96145   -567410.63743  23912197.4064   23912195.1094         34.7504
        18.2504
 -12657015.19947  -9139857.74647  22307674.4064   22307672.7274         43.2504
        44.2504
 -21489528.66047 -15381347.82046  20210518.2114   20210513.6994         45.0004
        40.0004
 21  2  1  0  2  0.0000000  0  8G23G18G15G24G12G13G10G20
 -21308193.22747 -15849534.64146  20362114.5944   20362110.8324         46.5004
        41.0004
  -5346894.14846  -3501120.12543  23207173.9924   23207170.5234         40.0004
        23.7504
 -16755371.28947 -12994623.68046  21009551.6644   21009547.2704         47.0004
        38.5004
 -21595126.05147 -16646062.05948  20028054.3134   20028052.4694         47.7504
        53.7504
  -8264349.99247  -6007760.14845  21978520.3984   21978515.7464         43.2504
        32.0004
  -2457460.84445   -508482.86742  23926588.9144   23926585.6884         34.5004
        17.7504
 -12742136.31647  -9206185.87947  22291476.2274   22291474.5164         43.0004
        44.0004
 -21506032.51647 -15394207.98046  20207377.6094   20207373.3714         45.0004
        40.2504
 21  2  1  0  2 30.0000000  0  8G23G18G15G24G12G13G10G20
 -21334025.15247 -15869663.41846  20357199.1414   20357195.0124         46.5004
        40.5004
  -5265069.84046  -3437360.95743  23222744.2344   23222740.8324         39.2504
        22.7504
 -16708822.96547 -12958352.27046  21018409.2584   21018404.9304         46.5004
        38.7504
 -21561664.54747 -16619988.16048  20034421.7034   20034420.3284         47.5004
        53.5004
  -8354123.70347  -6077713.68745  21961437.2584   21961432.7384         44.0004
        33.2504
  -2381772.34045   -449504.85943  23940992.0164   23940988.0514         34.5004
        18.2504
 -12826954.02747  -9272277.60547  22275336.0084   22275334.2504         43.0004
        44.0004
 -21521948.81247 -15406610.30546  20204349.0084   20204344.1254         46.2504
        40.2504
 21  2  1  0  3  0.0000000  0  8G23G18G15G24G12G13G10G20
 -21359311.61747 -15889367.18046  20352386.7814   20352383.8164         47.0004
        40.7504
  -5183061.04346  -3373458.05543  23238350.6484   23238346.3054         38.2504
        22.5004
 -16662021.54347 -12921883.64546  21027315.6564   21027311.3094         45.5004
        38.2504
 -21527809.21947 -16593607.39148  20040864.3134   20040862.5784         47.7504
        53.5004
  -8443563.24247  -6147406.82445  21944417.3524   21944412.9614         44.0004
        33.2504
  -2306019.23045   -390476.52042  23955407.7424   23955403.5904         35.7504
        17.7504
 -12911465.64147  -9338130.80547  22259253.4064   22259252.2814         42.7504
        44.0004
 -21537276.52347 -15418553.98446  20201432.1954   20201427.9184         46.2504
        40.5004
 21  2  1  0  3 30.0000000  0  8G23G18G15G24G12G13G10G20
 -21384051.25047 -15908644.82446  20347679.3054   20347675.6884         46.5004
        40.5004
  -5100871.10546  -3309413.93743  23253990.7664   23253986.3984         38.7504
        22.5004
 -16614967.07047 -12885217.84846  21036269.8594   21036265.2154         46.5004
        38.2504
 -21493561.71147 -16566921.03148  20047381.6414   20047379.4924         47.5004
        53.5004
  -8532665.10247  -6216836.84845  21927461.4614   21927457.7114         43.5004
        32.5004
  -2230201.80545   -331398.07043  23969834.3594   23969831.6024         34.5004
        18.5004
 -12995668.48447  -9403743.40247  22243230.5004   22243229.4184         43.5004
        44.0004
 -21552015.12147 -15430038.62146  20198627.1174   20198623.1334         45.7504
        39.5004
 21  2  1  0  4  0.0000000  0  8G23G18G15G24G12G13G10G20
 -21408242.64847 -15927495.27746  20343076.1174   20343072.0704         46.2504
        40.7504
  -5018503.08646  -3245231.09843  23269664.3984   23269660.9104         36.7504
        21.2504
 -16567659.67247 -12848354.93446  21045272.0784   21045267.7934         46.0004
        38.2504
 -21458923.65247 -16539930.33248  20053972.8204   20053970.6134         47.2504
        53.5004
  -8621426.38347  -6286001.44945  21910570.1174   21910566.3634         42.2504
        31.7504
  -2154319.85245   -272269.32042  23984275.0084   23984271.6724         34.7504
        16.7504
 -13079559.83647  -9469113.31247  22227266.4454   22227265.0354         42.7504
        43.7504
 -21566162.89547 -15441062.87146  20195935.5004   20195930.6884         46.7504
        40.0004
 21  2  1  0  4 30.0000000  0  8G23G18G15G24G12G13G10G20
 -21431884.33247 -15945917.37946  20338577.3524   20338573.4304         46.7504
        40.5004
  -4935960.16046  -3180911.98443  23285371.9384   23285368.1684         38.7504
        22.0004
 -16520099.36347 -12811294.96946  21054322.5704   21054318.5704         47.0004
        38.2504
 -21423897.91848 -16512637.55548  20060638.5004   20060636.3054         48.2504
        53.5004
  -8709843.57847  -6354897.95345  21893745.7734   21893741.3794         43.5004
        32.5004
  -2078373.68046   -213090.52343  23998728.2734   23998724.6454         37.2504
        18.2504
 -13163137.03147  -9534238.37947  22211362.7734   22211361.4144         44.2504
        44.5004
 -21579719.22747 -15451626.25046  20193355.4774   20193350.8834         47.0004
        40.2504
 21  2  1  0  5  0.0000000  0  8G23G18G15G24G12G13G10G20
 -21454974.97347 -15963910.10546  20334183.1024   20334179.1374         46.0004
        40.5004
  -4853245.63346  -3116459.15244  23301112.7734   23301109.6174         40.5004
        25.5004
 -16472286.26647 -12774038.02046  21063420.7734   21063417.0274         47.0004
        38.2504
 -21388485.12147 -16485043.16048  20067377.1334   20067375.3874         47.2504
        53.7504
  -8797913.62547  -6423523.94545  21876986.6484   21876982.4024         43.7504
        32.5004
  -2002362.87545   -153861.41042  24013191.0234   24013189.3014         34.0004
        17.2504
 -13246397.39147  -9599116.56647  22195518.5004   22195516.9144         44.7504
        44.7504
 -21592683.25847 -15461728.10546  20190888.6024   20190884.4774         47.0004
        39.7504
 21  2  1  0  5 30.0000000  0  8G23G18G15G24G12G13G10G20
 -21477513.19547 -15981472.37946  20329893.9694   20329890.3284         45.5004
        40.7504
  -4770362.61346  -3051875.02344  23316884.7274   23316882.2384         40.0004
        25.0004
 -16424220.57847 -12736584.25846  21072567.3834   21072563.6294         46.5004
        38.0004
 -21352687.83647 -16457149.18048  20074189.1884   20074187.2464         47.7504
        53.7504
  -8885633.15647  -6491876.81645  21860293.4924   21860289.8404         43.5004
        33.7504
  -1926287.64145    -94582.07442  24027667.4614   24027665.6454         34.2504
        17.2504
 -13329338.17647  -9663745.76247  22179735.4694   22179733.3554         44.2504
        44.7504
 -21605054.22347 -15471367.82846  20188534.5394   20188530.0204         47.2504
        39.7504
 21  2  1  0  6  0.0000000  0  8G23G18G15G24G12G13G10G20
 -21499497.68747 -15998603.16446  20325710.8524   20325707.1174         46.7504
        40.2504
  -4687314.23446  -2987162.02743  23332688.0234   23332685.6524         39.0004
        22.5004
 -16375902.02347 -12698933.46546  21081762.3284   21081758.1914         47.0004
        38.2504
 -21316507.66448 -16428956.84848  20081074.0084   20081071.6644         48.2504
        53.5004
  -8972999.18047  -6559954.23045  21843668.6724   21843664.8594         43.5004
        33.2504
  -1850147.96145    -35252.44142  24042157.3444   24042153.9064         34.0004
        15.5004
 -13411956.76647  -9728123.88747  22164014.0554   22164011.7934         45.2504
        44.7504
 -21616831.33247 -15480544.80946  20186293.2424   20186288.9104         46.2504
        39.5004
 21  2  1  0  6 30.0000000  0  8G23G18G15G24G12G13G10G20
 -21520927.04747 -16015301.37146  20321632.7424   20321629.1334         45.7504
        40.7504
  -4604103.68746  -2922322.63743  23348522.0704   23348519.5944         38.0004
        20.2504
 -16327331.14547 -12661086.03946  21091005.0394   21091000.5744         46.2504
        38.0004
 -21279946.75447 -16400467.82048  20088031.1644   20088029.3324         47.5004
        53.5004
  -9060008.09847  -6627753.37945  21827110.8204   21827107.0234         42.5004
        32.2504
  -1773943.75445     24127.39543  24056658.8134   24056655.5744         34.2504
        18.2504
 -13494250.48847  -9792248.84047  22148353.4774   22148352.6884         44.0004
        44.5004
 -21628013.71947 -15489258.37146  20184165.5084   20184161.2854         47.2504
        39.5004
 21  2  1  0  7  0.0000000  0  8G23G18G15G24G12G13G10G20
 -21541800.06647 -16031566.07846  20317660.8444   20317656.8874         45.5004
        40.5004
  -4520734.08645  -2857359.33643  23364386.6484   23364384.3874         35.2504
        20.0004
 -16278507.45347 -12623041.61746  21100295.6724   21100291.4774         46.0004
        37.7504
 -21243006.64147 -16371683.31648  20095060.2894   20095058.7464         47.2504
        53.5004
  -9146657.07047  -6695272.02745  21810623.0474   21810618.8524         43.5004
        33.2504
  -1697675.01645     83557.52042  24071172.2344   24071169.1454         35.7504
        17.2504
 -13576216.54347  -9856118.50847  22132755.8284   22132754.5394         43.2504
        44.2504
 -21638600.69947 -15497507.98846  20182151.0314   20182146.0664         47.0004
        40.7504
 21  2  1  0  7 30.0000000  0  8G23G18G15G24G12G13G10G20
 -21562115.43447 -16047396.24646  20313794.9224   20313791.2894         45.5004
        40.7504
  -4437208.83646  -2792274.73843  23380280.7814   23380278.2114         37.0004
        21.2504
 -16229431.25047 -12584800.43446  21109634.6804   21109630.3754         45.7504
        38.0004
 -21205689.18747 -16342604.78548  20102161.7504   20102160.0394         46.7504
        53.2504
  -9232942.88747  -6762507.71145  21794202.8054   21794198.7304         43.2504
        33.5004
  -1621341.82845    143037.84442  24085696.9534   24085694.9064         35.0004
        17.7504
 -13657852.36347  -9919730.84847  22117221.2734   22117219.8754         45.0004
        44.7504
 -21648591.42247 -15505292.97746  20180249.6094   20180245.1954         47.0004
        40.0004
 21  2  1  0  8  0.0000000  0  8G23G18G15G24G12G13G10G20
 -21581871.85547 -16062790.87946  20310035.6484   20310031.5274         46.2504
        41.0004
  -4353530.88745  -2727071.19543  23396204.3444   23396202.3204         34.2504
        20.5004
 -16180102.83247 -12546362.72746  21119022.0084   21119017.2074         46.5004
        38.0004
 -21167996.44547 -16313233.82448  20109334.3984   20109332.5004         47.2504
        53.2504
  -9318862.29347  -6829457.87545  21777852.8754   21777849.1604         44.0004
        34.2504
  -1544944.03545    202568.52742  24100235.3984   24100232.3094         34.5004
        16.2504
 -13739155.20347  -9983083.69947  22101749.4224   22101748.0204         44.0004
        44.2504
 -21657985.14147 -15512612.77346  20178462.2114   20178457.8324         47.0004
        39.7504
 21  2  1  0  8 30.0000000  0  8G23G18G15G24G12G13G10G20
 -21601068.14147 -16077749.03546  20306382.7424   20306378.7974         45.7504
        40.5004
  -4269703.53545  -2661751.25043  23412156.4614   23412154.3404         35.0004
        19.0004
 -16130522.04747 -12507728.35946  21128456.6414   21128452.4844         46.0004
        37.5004
 -21129930.18447 -16283571.80948  20116578.3754   20116576.2584         47.0004
        53.0004
  -9404412.05547  -6896120.03545  21761573.1644   21761569.4024         43.7504
        33.2504
  -1468481.71545    262149.44942  24114785.1254   24114782.6374         34.5004
        16.2504
 -13820122.40647 -10046175.03947  22086342.3914   22086340.3364         43.7504
        44.5004
 -21666780.97347 -15519466.69146  20176788.3984   20176783.6724         46.5004
        39.7504
 21  2  1  0  9  0.0000000  0  8G23G18G15G24G12G13G10G20
 -21619703.03547 -16092269.75046  20302836.5004   20302833.2074         46.5004
        41.0004
  -4185729.86745  -2596317.27743  23428137.3834   23428133.5124         34.7504
        19.2504
 -16080689.04747 -12468897.46546  21137939.3444   21137935.3014         46.5004
        37.5004
 -21091491.63348 -16253619.70348  20123893.0084   20123891.0944         48.0004
        53.0004
  -9489589.21147  -6962491.82845  21745364.7034   21745360.6644         43.2504
        33.0004
  -1391954.98045    321780.64542  24129347.5084   24129345.5124         34.0004
        17.2504
 -13900751.30547 -10109002.72747  22070998.9774   22070997.8364         43.0004
        45.2504
 -21674978.68747 -15525854.52746  20175228.3054   20175223.6524         46.7504
        39.7504
 21  2  1  0  9 30.0000000  0  8G23G18G15G24G12G13G10G20
 -21637775.34047 -16106352.08246  20299397.2344   20299393.5164         46.0004
        41.5004
  -4101613.10245  -2530771.80142  23444142.5234   23444141.7154         31.5004
        17.7504
 -16030603.91847 -12429870.10946  21147470.2664   21147466.3874         45.7504
        37.5004
 -21052683.34847 -16223379.48448  20131277.7814   20131276.0234         47.0004
        53.2504
  -9574390.47347  -7028570.71545  21729227.0704   21729222.8954         44.2504
        33.0004
  -1315363.68445    381462.03142  24143922.6804   24143921.2194         33.5004
        16.7504
 -13981039.16447 -10171564.70747  22055720.7974   22055719.4384         44.2504
        45.0004
 -21682577.41447 -15531775.63346  20173782.3754   20173778.1564         46.5004
        40.7504
 21  2  1  0 10  0.0000000  0  8G23G18G15G24G12G13G10G20
 -21655283.89147 -16119995.11746  20296065.5704   20296062.3594         45.5004
        40.5004
  -4017356.40646  -2465117.18442  23460177.7274   23460174.7504         37.2504
        17.2504
 -15980266.60547 -12390646.24246  21157049.1094   21157045.2934         46.2504
        37.7504
 -21013507.05947 -16192852.51648  20138732.7584   20138730.5864         46.5004
        53.0004
  -9658812.68047  -7094354.25445  21713162.9924   21713157.8134         43.5004
        32.2504
  -1238707.750 5                  24158509.336                          31.750

 -14060983.38347 -10233858.89847  22040508.2274   22040506.5634         43.5004
        45.2504
 -21689576.32047 -15537229.34046  20172451.0634   20172446.0704         46.7504
        39.7504
 21  2  1  0 10 30.0000000  0  8G23G18G15G24G12G13G10G20
 -21672227.54747 -16133197.98846  20292841.3204   20292837.6844         47.2504
        40.5004
  -3932962.96145  -2399356.05943  23476236.4064   23476234.6024         33.2504
        19.7504
 -15929677.16847 -12351225.92246  21166676.3984   21166671.7584         46.7504
        37.5004
 -20973965.05547 -16162040.57848  20146257.6094   20146255.4304         47.5004
        53.2504
  -9742852.32047  -7159839.71545  21697170.6644   21697165.9574         43.2504
        33.2504
  -1161987.516 5                  24173109.375                          31.750

 -14140581.19947 -10295883.17647  22025360.7504   22025358.9264         44.5004
        45.7504
 -21695975.09447 -15542215.39846  20171233.1024   20171228.4924         47.2504
        40.2504
 21  2  1  0 11  0.0000000  0  8G23G18G15G24G12G13G10G20
 -21688605.12947 -16145959.75046  20289725.1644   20289721.2074         47.0004
        41.0004
  -3848435.91846  -2333490.87143  23492322.1724   23492319.8674         37.5004
        20.7504
 -15878835.69547 -12311609.20746  21176350.9454   21176346.7424         45.5004
        38.0004
 -20934058.33247 -16130944.43748  20153851.6724   20153849.9064         47.5004
        53.2504
  -9826507.08247  -7225025.21945  21681251.2034   21681247.7234         43.5004
        33.5004
  -1085202.500 5                  24187720.695                          32.000

 -14219830.00847 -10357635.47747  22010279.9924   22010279.0704         43.7504
        45.5004
 -21701772.95347 -15546733.23046  20170129.9144   20170125.1134         46.2504
        40.0004
 21  2  1  0 11 30.0000000  0  8G23G18G15G24G12G13G10G20
 -21704415.59047 -16158279.60246  20286716.0704   20286712.4654         47.2504
        40.7504
  -3763778.43046  -2267524.10943  23508432.7504   23508429.1174         37.5004
        20.5004
 -15827742.68747 -12271796.48846  21186073.6804   21186069.4184         46.0004
        37.2504
 -20893789.62147 -16099566.23448  20161514.6564   20161512.5434         47.5004
        53.0004
  -9909773.43747  -7289908.08645  21665405.9534   21665402.0984         44.5004
        33.5004
  -1008352.883 5                  24202345.828                          32.500

 -14298727.12947 -10419113.75047  21995266.6254   21995265.2974         44.7504
        46.0004
 -21706969.35547 -15550782.39546  20169140.5474   20169136.4264         47.0004
        40.5004
 21  2  1  0 12  0.0000000  0  8G23G18G15G24G12G13G10G20
 -21719657.78147 -16170156.65646  20283815.8204   20283812.4574         47.7504
        41.0004
  -3678993.68745  -2201458.10543  23524565.4144   23524562.6914         34.2504
        19.5004
 -15776397.97347 -12231787.64846  21195844.2894   21195840.0634         46.5004
        37.5004
 -20853161.14147 -16067907.68048  20169245.5394   20169243.6844         47.0004
        52.7504
  -9992648.05147  -7354485.69545  21649636.2034   21649631.5824         43.5004
        34.0004
   -931438.586 5                  24216982.484                          33.250

 -14377269.85547 -10480315.88747  21980320.5084   21980319.4304         43.7504
        45.5004
 -21711563.68747 -15554362.40246  20168266.4774   20168261.9414         47.7504
        40.5004
 21  2  1  0 12 30.0000000  0  8G23G18G15G24G12G13G10G20
 -21734330.64847 -16181590.08246  20281023.4144   20281019.8834         47.7504
        40.5004
  -3594084.79346  -2135295.34843  23540724.1484   23540720.0434         37.0004
        19.0004
 -15724801.75447 -12191582.81646  21205662.6644   21205658.7154         46.2504
        37.0004
 -20812173.48847 -16035969.25448  20177045.7734   20177043.6174         47.0004
        53.0004
 -10075128.29347  -7418756.00845  21633940.3204   21633936.3444         43.2504
        34.0004
   -854459.656 5                  24231631.156                          34.000

 -14455455.60547 -10541239.83647  21965442.1414   21965441.2344         44.5004
        45.5004
 -21715555.61747 -15557473.01646  20167506.9614   20167502.0824         46.2504
        39.7504
 21  2  1  0 13  0.0000000  0  8G23G18G15G24G12G13G10G20
 -21748433.16047 -16192579.06246  20278339.9224   20278336.5234         47.0004
        41.2504
  -3509054.92245  -2069038.34443  23556903.5004   23556900.5664         32.5004
        19.2504
 -15672953.85947 -12151181.85946  21215529.0164   21215524.5984         46.7504
        37.2504
 -20770829.55147 -16003753.21148  20184913.3134   20184911.1054         47.5004
        53.0004
 -10157210.73047  -7482716.34045  21618320.4224   21618316.7704         43.0004
        33.5004
   -777415.902 5                  24246291.516                          33.500

 -14533281.61347 -10601883.50447  21950632.8594   21950630.7974         44.5004
        45.7504
 -21718944.37547 -15560113.62946  20166862.5234   20166857.1604         47.0004
        40.2504
 21  2  1  0 13 30.0000000  0  8G23G18G15G24G12G13G10G20
 -21761964.27747 -16203122.80946  20275764.9614   20275761.8524         47.2504
        41.0004
  -3423907.22345  -2002689.50842  23573106.2814   23573104.5594         30.2504
        16.2504
 -15620854.39547 -12110584.88746  21225443.1174   21225439.1294         46.7504
        37.2504
 -20729130.89147 -15971260.75048  20192848.0634   20192845.9884         47.2504
        53.0004
 -10238892.32047  -7546364.33645  21602777.1094   21602773.0514         44.0004
        34.2504
   -700307.395 5                  24260964.859                          34.000

 -14610745.32447 -10662244.83247  21935891.6724   21935890.4454         44.5004
        45.5004
 -21721730.19547 -15562284.40246  20166332.4224   20166327.2934         45.2504
        39.7504
 21  2  1  0 14  0.0000000  0  8G23G18G15G24G12G13G10G20
 -21774922.97347 -16213220.50846  20273299.3054   20273295.7544         47.7504
        40.7504
  -3338644.94945  -1936251.37943  23589332.6884   23589329.0004         34.5004
        18.5004
 -15568503.61347 -12069792.09046  21235405.4844   21235401.2234         47.2504
        36.5004
 -20687079.46947 -15938493.41048  20200850.1024   20200848.0784         47.5004
        52.7504
 -10320170.01647  -7609697.60545  21587310.2974   21587306.4654         44.5004
        33.7504
   -623134.566 5                  24275651.000                          33.250

 -14687843.98047 -10722321.71147  21921220.3364   21921218.8284         44.7504
        46.2504
 -21723912.07847 -15563984.57446  20165916.6884   20165912.5164         45.5004
        40.7504
 21  2  1  0 14 30.0000000  0  8G23G18G15G24G12G13G10G20
 -21787308.31248 -16222871.43046  20270942.1484   20270938.7734         48.2504
        41.0004
  -3253271.14846  -1869726.37143  23605579.1414   23605575.3914         36.0004
        19.0004
 -15515901.21947 -12028803.21946  21245415.4614   21245411.1454         46.2504
        37.0004
 -20644676.98047 -15905452.51648  20208919.1174   20208916.6884         47.0004
        52.5004
 -10401040.74647  -7672713.72345  21571921.5864   21571917.1884         44.0004
        34.0004
   -545897.086 4                  24290348.242                          28.250

 -14764575.02347 -10782112.12547  21906618.5394   21906616.8014         44.5004
        46.2504
 -21725489.96147 -15565214.11346  20165616.4144   20165611.7934         46.5004
        40.0004
 21  2  1  0 15  0.0000000  0  8G23G18G15G24G12G13G10G20
 -21799119.30147 -16232074.81646  20268694.8754   20268691.4844         47.5004
        40.7504
  -3167788.98045  -1803116.90243  23621845.0474   23621842.7194         33.7504
        19.0004
 -15463047.98047 -11987618.90246  21255472.5234   21255468.5514         46.0004
        36.5004
 -20601925.45747 -15872139.63748  20217054.1334   20217052.2624         47.7504
        52.5004
 -10481501.47747  -7735410.41045  21556610.2344   21556605.5944         44.0004
        34.0004
                                  24305057.578                          25.250

 -14840935.74247 -10841613.98447  21892087.6484   21892086.7194         43.5004
        45.7504
 -21726463.13747 -15565972.44146  20165431.4224   20165427.0704         46.5004
        40.0004
 21  2  1  0 15 30.0000000  0  7G23G18G15G24G12G10G20
 -21810355.01247 -16240829.91846  20266556.5084   20266552.8984         47.5004
        41.2504
  -3082201.60945  -1736425.44942  23638131.1484   23638129.8014         31.0004
        16.7504
 -15409943.59047 -11946238.85246  21265578.2664   21265574.5084         46.0004
        37.2504
 -20558827.19147 -15838556.57848  20225255.6254   20225253.8634         47.5004
        52.5004
 -10561549.36347  -7797785.37545  21541377.6254   21541373.5084         44.0004
        34.2504
 -14916923.53547 -10900825.25047  21877627.5004   21877626.8244         45.0004
        46.0004
 -21726831.34847 -15566259.37946  20165361.3204   20165356.7344         46.5004
        40.5004
 21  2  1  0 16  0.0000000  0  7G23G18G15G24G12G10G20
 -21821014.53948 -16249136.05946  20264528.3204   20264524.7034         48.0004
        41.0004
  -2996511.99645  -1669654.39142  23654437.0314   23654436.2464         30.5004
        14.7504
 -15356588.44547 -11904663.44146  21275731.6094   21275727.4574         46.5004
        36.7504
 -20515383.52747 -15804704.38348  20233522.5864   20233520.8244         47.5004
        52.7504
 -10641181.11347  -7859836.06245  21526223.4774   21526220.1024         44.2504
        34.0004
 -14992535.69147 -10959743.82847  21863239.5004   21863237.9144         44.5004
        46.0004
 -21726594.44547 -15566074.79746  20165406.4694   20165401.9924         45.7504
        39.7504
 21  2  1  0 16 30.0000000  0  8G23G18G15G24G12G13G10G20
 -21831096.98047 -16256992.52746  20262609.3754   20262606.2424         47.2504
        41.2504
  -2910723.55945  -1602806.33642  23670763.8364   23670761.2194         34.0004
        14.7504
 -15302982.46547 -11862892.55546  21285932.3834   21285928.6214         45.7504
        36.7504
 -20471596.12947 -15770584.33648  20241855.3284   20241853.9694         47.7504
        52.7504
 -10720393.82047  -7921560.24245  21511150.4694   21511145.8444         44.5004
        34.2504
    127101.12114                  24349263.398                          29.250

 -15067769.66447 -11018367.69547  21848923.0944   21848920.5744         45.0004
        46.0004
 -21725751.75847 -15565418.17646  20165566.9694   20165562.0744         46.2504
        40.0004
 21  2  1  0 17  0.0000000  0  9G23G18G15G24G25G12G13G10G20
 -21840601.49647 -16264398.64846  20260801.0164   20260797.6454         47.0004
        41.2504
  -2824839.31244  -1535883.60542  23687104.7344   23687104.5394         29.2504
        15.5004
 -15249125.80547 -11820926.34846  21296180.8834   21296177.3594         45.5004
        36.7504
 -20427467.48048 -15736198.38348  20250252.7034   20250250.9344         48.0004
        52.5004
   -137588.26655    -74263.74653  23693798.6174   23693799.3634         31.0004
        22.7504
 -10799184.54347  -7982955.61745  21496156.6954   21496153.0554         44.0004
        35.2504
    204662.395 5                  24364024.023                          31.000

 -15142622.74247 -11076694.79747  21834678.8594   21834676.9654         45.2504
        46.5004
 -21724303.28147 -15564289.50846  20165842.4534   20165838.0664         46.0004
        40.0004
 21  2  1  0 17 30.0000000  0  9G23G18G15G24G25G12G13G10G20
 -21849527.18448 -16271353.74646  20259102.2504   20259098.8014         48.0004
        41.0004
  -2738862.379 5                  23703468.250                          30.250

 -15195018.44147 -11778764.78146  21306477.0084   21306473.9884         46.0004
        36.2504
 -20382999.30147 -15701547.84848  20258714.5084   20258712.7934         47.2504
        52.7504
                                  23671608.9844   23671612.1294         29.2504
        22.0004
 -10877550.14847  -8044019.69945  21481244.2584   21481240.5474         43.5004
        34.0004
    282288.230 5                  24378794.766                          33.000

 -15217092.41047 -11134723.08647  21820507.1024   21820505.4454         45.2504
        45.7504
 -21722248.62147 -15562688.47746  20166233.1174   20166229.3324         45.7504
        39.7504
 21  2  1  0 18  0.0000000  0  9G23G18G15G24G25G12G13G10G20
 -21857873.30147 -16277857.22746  20257513.9694   20257510.2934         47.0004
        41.0004
                                  23719845.133                          29.750

 -15140660.32847 -11736407.82046  21316821.4774   21316817.5594         44.5004
        36.0004
 -20338193.56648 -15666634.29748  20267241.0864   20267239.2384         48.0004
        52.7504
   -370714.05945   -255920.05943  23649436.2664   23649435.7194         33.0004
        21.7504
 -10955487.48447  -8104750.08245  21466412.8754   21466409.5084         43.0004
        34.2504
    359978.969 5                  24393577.758                          33.250

 -15291175.90647 -11192450.50047  21806409.9614   21806408.0044         46.0004
        46.5004
 -21719587.93447 -15560615.23446  20166739.8914   20166735.2734         46.2504
        40.5004
 21  2  1  0 18 30.0000000  0  9G23G18G15G24G25G12G13G10G20
 -21865639.00047 -16283908.42246  20256036.6254   20256033.0394         47.2504
        41.2504
  -2566642.887 4                  23736239.813                          29.000

 -15086051.96547 -11693855.87146  21327212.2974   21327208.7624         45.2504
        36.0004
 -20293052.21948 -15631459.21548  20275831.1024   20275829.3134         48.0004
        52.7504
                                  23627269.2664   23627270.1254         30.0004
        19.5004
 -11032993.66447  -8165144.49245  21451664.8204   21451660.1604         43.7504
        34.0004
    437734.391 4                  24408373.953                          29.500

 -15364870.71547 -11249875.00847  21792386.4774   21792384.7774         46.7504
        46.5004
 -21716320.79747 -15558069.42646  20167361.3984   20167356.9734         47.0004
        39.7504
 21  2  1  0 19  0.0000000  0  9G23G18G15G24G25G12G13G10G20
 -21872823.53147 -16289506.77346  20254669.3134   20254665.9144         46.2504
        41.0004
                                  23752647.109                          27.250

 -15031193.36747 -11651108.93046  21337652.2584   21337647.8524         45.0004
        36.2504
 -20247576.77048 -15596023.80148  20284484.5394   20284482.8954         48.0004
        52.5004
   -603601.32455   -437390.52053  23605119.7974   23605117.9574         31.0004
        18.5004
 -11110065.93747  -8225200.80545  21436997.7894   21436993.6844         43.7504
        34.0004
    515554.711 5                  24423184.508                          32.000

 -15438174.13747 -11306994.56247  21778436.8674   21778435.3914         45.0004
        46.7504
 -21712446.85947 -15555050.79746  20168098.6024   20168094.1764         47.0004
        40.0004
 21  2  1  0 19 30.0000000  0  8G23G15G24G25G12G13G10G20
 -21879426.04347 -16294651.60946  20253413.0004   20253409.5044         47.5004
        41.2504
 -14976084.56647 -11608167.02045  21348139.1414   21348134.8754         45.5004
        35.5004
 -20201769.68447 -15560329.96948  20293201.4384   20293199.6564         46.5004
        52.0004
                                  23582977.0554   23582978.2664         27.5004
        19.7504
 -11186701.09047  -8284916.51645  21422414.5784   21422411.3554         44.5004
        34.5004
    593439.879 5                  24438004.383                          32.250

 -15511083.64147 -11363807.16047  21764563.0234   21764561.3834         47.2504
        47.5004
 -21707966.35247 -15551559.50846  20168951.1174   20168946.7424         45.7504
        39.7504
 21  2  1  0 20  0.0000000  0  9G23G18G15G24G25G12G13G10G20
 -21885445.94547 -16299342.45346  20252267.3984   20252264.1024         47.0004
        41.0004
     73217.47315                  23785517.844                          30.500

 -14920726.01647 -11565030.50446  21358673.1724   21358669.3594         45.0004
        36.0004
 -20155632.48047 -15524378.90648  20301981.0634   20301979.0554         46.5004
        52.0004
   -836226.62554   -618657.00853  23560852.3834   23560852.0664         27.5004
        20.0004
 -11262896.38347  -8344289.43745  21407915.6884   21407911.7504         45.2504
        35.0004
                                  24452836.227                          27.500

 -15583596.60247 -11420310.77047  21750764.1804   21750762.2504         46.7504
        47.2504
 -21702878.80947 -15547595.20746  20169919.3984   20169915.0124         45.5004
        40.2504
 21  2  1  0 20 30.0000000  0  8G23G15G24G25G12G13G10G20
 -21890882.46547 -16303578.71947  20251233.2194   20251229.5274         47.0004
        42.0004
 -14865117.62947 -11521699.30146  21369255.8284   21369251.5664         45.0004
        36.0004
 -20109167.19947 -15488172.19148  20310823.1954   20310821.1914         47.0004
        52.2504
   -952433.78155   -709207.98453  23538736.6804   23538737.4774         30.2504
        21.5004
 -11338648.59447  -8403317.12145  21393500.1804   21393495.5354         44.7504
        34.0004
    749404.86715                  24467684.383                          31.750

 -15655710.40647 -11476503.34847  21737041.5634   21737039.8054         46.0004
        47.0004
 -21697184.29747 -15543157.93046  20171003.0394   20170998.4384         47.0004
        41.0004
 21  2  1  0 21  0.0000000  0  8G23G15G24G25G12G13G10G20
 -21895734.81647 -16307359.78546  20250309.5784   20250306.0744         46.7504
        41.5004
 -14809259.45747 -11478173.46545  21379884.6644   21379880.6024         45.2504
        34.5004
 -20062375.35547 -15451711.02048  20319727.4844   20319725.6524         47.0004
        52.0004
  -1068566.77745   -799701.19543  23516637.9384   23516637.7974         31.7504
        21.5004
 -11413955.21547  -8461997.60245  21379170.0004   21379165.7344         45.0004
        34.5004
                                  24482542.820                          29.500

 -15727422.47747 -11532382.88747  21723394.6094   21723393.4844         46.0004
        47.2504
 -21690882.93447 -15538247.78946  20172202.1334   20172198.2544         46.5004
        40.2504
 21  2  1  0 21 30.0000000  0  8G23G15G24G25G12G13G10G20
 -21900002.57048 -16310685.32046  20249497.7114   20249493.9454         48.0004
        41.5004
 -14753151.92647 -11434453.32445  21390561.5864   21390557.3714         45.7504
        35.7504
 -20015259.58647 -15414997.42648  20328693.0164   20328691.0044         47.0004
        52.0004
  -1184622.64545   -890134.34443  23494552.7274   23494552.0514         31.0004
        21.5004
 -11488813.30947  -8520328.56645  21364925.0944   21364921.1294         44.7504
        35.0004
    905629.00015                  24497413.711                          30.250

 -15798730.23447 -11587947.37147  21709825.5314   21709823.4924         45.5004
        47.2504
 -21683974.55147 -15532864.65646  20173516.9844   20173512.6294         46.7504
        40.7504
 21  2  1  0 22  0.0000000  0  8G23G15G24G25G12G13G10G20
 -21903684.99247 -16313554.74246  20248796.5084   20248792.8874         47.2504
        41.2504
 -14696794.96547 -11390538.82045  21401286.5314   21401282.4384         45.5004
        35.5004
 -19967821.32847 -15378032.57448  20337720.1564   20337718.0514         47.0004
        52.0004
  -1300598.38745   -980505.00843  23472484.2034   23472483.2734         33.0004
        22.5004
 -11563219.75047  -8578307.60945  21350765.5634   21350761.2664         45.0004
        35.0004
                                  24512295.500                          27.250

 -15869631.11347 -11643194.82047  21696333.9844   21696331.7274         46.2504
        47.5004
 -21676458.99247 -15527008.39546  20174946.7274   20174942.7624         47.0004
        40.7504
 21  2  1  0 22 30.0000000  0  7G23G15G24G25G12G10G20
 -21906781.41447 -16315967.55946  20248207.3984   20248203.8284         46.5004
        41.0004
 -14640188.62147 -11346430.00845  21412058.0084   21412054.1994         45.5004
        35.0004
 -19920063.06247 -15340818.33648  20346808.8524   20346806.4844         47.0004
        52.0004
  -1416491.17645  -1070811.09443  23450431.9384   23450427.4924         34.7504
        22.5004
 -11637171.54347  -8635932.37145  21336692.7894   21336689.4774         44.0004
        35.2504
 -15940122.48847 -11698123.16047  21682919.4534   21682917.7114         45.0004
        47.2504
 -21668336.32847 -15520679.05946  20176492.6564   20176488.1804         44.5004
        40.5004
 21  2  1  0 23  0.0000000  0  8G23G18G15G24G25G12G10G20
 -21909291.33247 -16317923.33646  20247730.1024   20247726.1804         45.7504
        41.0004
                                  23884436.188                          33.000

 -14583333.13747 -11302127.04745  21422877.3984   21422872.8134         45.0004
        35.2504
 -19871985.61347 -15303355.39548  20355957.2814   20355955.2234         47.2504
        51.7504
  -1532298.08646  -1161050.19544  23428393.7114   23428390.3834         36.7504
        25.0004
 -11710666.09047  -8693200.83245  21322707.8444   21322703.4384         45.0004
        35.0004
 -16010201.88347 -11752730.47347  21669584.1884   21669581.9774         47.0004
        47.5004
 -21659606.66447 -15513876.74246  20178153.9384   20178149.5084         47.0004
        40.7504
 21  2  1  0 23 30.0000000  0  8G23G18G15G24G25G12G10G20
 -21911214.13347 -16319421.64146  20247363.7274   20247360.8484         46.7504
        41.5004
    147590.59814                  23900959.344                          27.500

 -14526228.76647 -11257630.13745  21433743.7034   21433739.8914         44.5004
        34.7504
 -19823592.18447 -15265646.23848  20365166.1334   20365164.3054         46.5004
        51.5004
  -1648016.07046  -1251219.95744  23406372.2504   23406371.7194         36.7504
        27.0004
 -11783700.24247  -8750110.58245  21308809.4774   21308805.3674         45.5004
        35.0004
 -16079866.65647 -11807014.69947  21656327.2504   21656325.5084         45.5004
        47.7504
 -21650270.07847 -15506601.50046  20179930.2274   20179926.0664         46.7504
        40.0004
 21  2  1  0 24  0.0000000  0  7G23G15G24G25G12G10G20
 -21912549.30147 -16320462.03946  20247110.0004   20247106.2934         47.5004
        41.0004
 -14468875.22347 -11212939.07445  21444657.5554   21444653.5984         44.5004
        34.5004
 -19774883.72747 -15227691.60248  20374435.3834   20374433.4144         47.0004
        51.7504
  -1763642.21145  -1341318.25444  23384368.4304   23384367.7194         34.2504
        27.0004
 -11856271.80947  -8806659.84445  21295000.0474   21294995.9384         44.0004
        35.2504
 -16149114.27347 -11860973.89547  21643150.0004   21643148.4964         45.5004
        47.7504
 -21640326.57847 -15498853.33246  20181823.0864   20181818.4924         46.5004
        39.7504
 21  2  1  0 24 30.0000000  0  7G23G15G24G25G12G10G20
 -21913296.31647 -16321044.13346  20246967.7504   20246964.0124         47.2504
        41.0004
 -14411273.38347 -11168054.54345  21455618.8364   21455615.1374         44.2504
        35.0004
 -19725862.50447 -15189493.25448  20383763.8054   20383761.8134         47.5004
        51.5004
  -1879173.58645  -1431342.64844  23362384.0004   23362383.9884         34.5004
        25.7504
 -11928377.50847  -8862846.09446  21281278.8524   21281274.9574         44.2504
        36.0004
 -16217942.23847 -11914606.07847  21630052.6174   21630050.8484         45.2504
        47.7504
 -21629776.37947 -15490632.41046  20183830.2734   20183826.1524         47.5004
        40.2504
 21  2  1  0 25  0.0000000  0  7G23G15G24G25G12G10G20
 -21913454.65647 -16321167.53546  20246937.8524   20246933.8594         46.7504
        40.5004
 -14353423.21947 -11122976.50045  21466627.4774   21466623.2074         45.2504
        34.2504
 -19676530.51647 -15151052.73448  20393150.8984   20393148.7934         46.7504
        51.7504
  -1994607.27345  -1521290.96544  23340418.8674   23340417.1914         34.0004
        28.0004
 -12000014.63747  -8918667.21945  21267646.2734   21267642.6644         45.7504
        35.5004
 -16286347.95747 -11967909.23447  21617035.0394   21617033.2704         46.0004
        47.5004
 -21618619.45347 -15481938.72746  20185953.6724   20185949.1414         46.5004
        40.2504
 21  2  1  0 25 30.0000000  0  8G23G18G15G24G25G12G10G20
 -21913023.94947 -16320831.92246  20247019.4694   20247015.9384         46.2504
        41.2504
                                  23967160.352                          33.500

 -14295324.55947 -11077704.83245  21477683.8834   21477679.1604         44.0004
        34.2504
 -19626889.51647 -15112371.44548  20402597.5314   20402595.3634         47.7504
        51.5004
  -2109940.30945  -1611160.81644  23318470.5164   23318470.9574         35.0004
        29.2504
 -12071180.16447  -8974120.87945  21254104.4304   21254100.4774         46.0004
        35.5004
 -16354328.97747 -12020881.46147  21604098.3834   21604096.3524         46.5004
        47.2504
 -21606856.23047 -15472772.59046  20188191.7584   20188187.6844         46.2504
        40.2504
 21  2  1  0 26  0.0000000  0  8G23G18G15G24G25G12G10G20
 -21912003.65647 -16320036.90246  20247213.7344   20247210.3554         46.2504
        41.0004
    137590.461 4                  23983728.547                          27.500

 -14236977.56647 -11032239.65245  21488786.8834   21488783.0084         45.0004
        34.5004
 -19576941.45748 -15073450.87948  20412101.9144   20412100.7934         48.0004
        51.5004
  -2225169.64845  -1700949.85545  23296543.2814   23296544.2194         35.2504
        30.5004
 -12141871.66047  -9029205.15245  21240651.8984   21240647.6724         44.0004
        35.5004
 -16421882.67247 -12073520.71147  21591243.5164   21591241.5434         45.0004
        47.2504
 -21594487.04347 -15463134.27746  20190545.6884   20190541.1804         46.2504
        40.0004
 21  2  1  0 26 30.0000000  0  7G23G15G24G25G12G10G20
 -21910393.40647 -16318782.17246  20247520.3524   20247516.6414         47.2504
        40.7504
 -14178382.45347 -10986581.14145  21499936.6724   21499932.8984         45.2504
        34.7504
 -19526688.16447 -15034292.46948  20421665.4064   20421663.6414         47.0004
        51.5004
  -2340292.42245  -1790655.89145  23274636.5164   23274637.0124         34.0004
        31.7504
 -12212086.14147  -9083917.73845  21227290.5704   21227286.1954         46.0004
        34.7504
 -16489006.60547 -12125825.07847  21578470.3594   21578468.1604         46.5004
        47.5004
 -21581511.62147 -15453023.57846  20193014.7664   20193011.0904         46.7504
        40.2504
 21  2  1  0 27  0.0000000  0  7G23G15G24G25G12G10G20
 -21908192.84447 -16317067.46546  20247939.1414   20247935.3284         47.5004
        41.5004
 -14119539.80547 -10940729.75045  21511134.4774   21511130.3524         44.0004
        34.0004
 -19476131.57847 -14994897.73848  20431286.1094   20431284.2154         47.2504
        51.5004
  -2455305.59045  -1880276.49245  23252750.0314   23252750.2504         34.5004
        32.0004
 -12281820.76647  -9138256.37146  21214020.6644   21214016.4024         45.7504
        36.0004
 -16555698.27047 -12177792.60547  21565779.5084   21565776.7344         45.7504
        47.5004
 -21567930.41847 -15442440.82846  20195599.0784   20195595.4884         46.5004
        40.0004
 21  2  1  0 27 30.0000000  0  7G23G15G24G25G12G10G20
 -21905401.53147 -16314892.41846  20248470.3914   20248466.4574         46.5004
        41.0004
 -14060449.58647 -10894685.43045  21522378.4304   21522374.7854         45.0004
        34.2504
 -19425273.45347 -14955268.02748  20440963.6484   20440961.9574         46.7504
        51.0004
  -2570206.19945  -1969809.43445  23230886.1884   23230884.9534         35.5004
        32.0004
 -12351073.17647  -9192219.27346  21200842.1254   21200838.2704         45.2504
        36.5004
 -16621955.07847 -12229421.29747  21553171.1254   21553169.2464         45.5004
        47.5004
 -21553743.86347 -15431386.39146  20198299.0164   20198294.6484         47.2504
        39.5004
 21  2  1  0 28  0.0000000  0  7G23G15G24G25G12G10G20
 -21902019.16447 -16312256.82846  20249113.8284   20249110.6724         46.7504
        41.5004
 -14001111.93747 -10848448.32445  21533670.1724   21533666.1524         44.7504
        34.7504
 -19374115.95747 -14915405.06248  20450698.6024   20450696.8404         47.5004
        51.2504
  -2684991.39846  -2059252.43445  23209043.5394   23209041.9494         38.5004
        32.2504
 -12419840.26247  -9245804.00445  21187755.8834   21187752.1454         44.2504
        35.0004
 -16687774.65247 -12280709.27048  21540646.1564   21540643.9694         45.0004
        48.0004
 -21538951.97747 -15419860.26646  20201113.8284   20201109.6914         47.7504
        40.2504
 21  2  1  0 28 30.0000000  0  7G23G15G24G25G12G10G20
 -21898045.42247 -16309160.41046  20249870.1804   20249866.3484         47.2504
        41.0004
 -13941527.05547 -10802018.54745  21545008.9694   21545004.8284         45.0004
        34.0004
 -19322661.07047 -14875310.33648  20460490.4774   20460488.3834         47.5004
        51.0004
  -2799658.14546  -2148603.13345  23187222.0784   23187221.7774         36.5004
        30.2504
 -12488119.75047  -9299008.81245  21174762.8914   21174758.5784         46.2504
        35.2504
 -16753154.50047 -12331654.60548  21528205.1484   21528202.4884         47.0004
        48.0004
 -21523555.40647 -15407862.94946  20204044.2974   20204039.3484         47.0004
        39.5004
 21  2  1  0 29  0.0000000  0  7G23G15G24G25G12G10G20
 -21893480.00848 -16305602.96146  20250738.7974   20250735.1414         48.0004
        41.2504
 -13881694.80147 -10755396.03145  21556394.6174   21556390.3754         45.5004
        34.0004
 -19270910.20747 -14834984.99648  20470338.2114   20470336.8554         47.7504
        51.5004
  -2914203.44946  -2237859.16845  23165424.6644   23165424.0394         36.5004
        31.0004
 -12555908.50447  -9351831.21545  21161863.4614   21161859.6054         46.5004
        35.7504
 -16818092.10547 -12382255.34848  21515847.9454   21515845.5004         46.5004
        48.0004
 -21507554.40248 -15395394.64146  20207088.7034   20207084.4184         48.0004
        40.5004
 21  2  1  0 29 30.0000000  0  7G23G15G24G25G12G10G20
 -21888322.65247 -16301584.25046  20251720.3364   20251716.7664         46.7504
        41.2504
 -13821615.76647 -10708581.23045  21567827.1484   21567823.6054         45.0004
        34.2504
 -19218865.68047 -14794430.81648  20480242.1484   20480240.0554         47.5004
        51.5004
  -3028624.28145  -2327018.23445  23143650.4924   23143650.8954         34.2504
        31.0004
 -12623204.03947  -9404269.28146  21149057.3594   21149053.4264         44.7504
        36.0004
 -16882585.01647 -12432509.55948  21503575.2344   21503573.1174         46.0004
        48.2504
 -21490949.72747 -15382455.94146  20210248.3754   20210244.5044         47.2504
        40.5004
 21  2  1  0 30  0.0000000  0  7G23G15G24G25G12G10G20
 -21882573.12147 -16297104.10546  20252814.7034   20252810.7734         47.0004
        41.2504
 -13761290.14147 -10661574.26245  21579307.0944   21579302.8284         45.5004
        34.7504
 -19166529.02047 -14753649.00848  20490201.5164   20490199.5744         47.0004
        51.2504
  -3142917.77745  -2416078.05545  23121901.0634   23121901.1374         34.5004
        30.5004
 -12690003.79747  -9456321.03146  21136345.6804   21136341.6644         46.2504
        36.2504
 -16946630.78947 -12482415.35248  21491387.2274   21491385.6454         47.5004
        48.5004
 -21473741.27047 -15369046.77346  20213523.0634   20213518.7464         47.5004
        39.7504
 21  2  1  0 30 30.0000000  0  7G23G15G24G25G12G10G20
 -21876231.21547 -16292162.35946  20254020.6024   20254017.5944         47.0004
        41.5004
 -13700717.92247 -10614375.15245  21590833.6414   21590829.4104         44.5004
        34.0004
 -19113902.19947 -14712641.09848  20500215.9144   20500214.0084         47.2504
        51.0004
  -3257080.89145  -2505036.26644  23100176.4774   23100176.7424         32.5004
        29.7504
 -12756304.87547  -9507984.20346  21123729.2504   21123724.5124         45.0004
        36.2504
 -17010227.02747 -12531970.86348  21479285.4224   21479283.6134         46.5004
        48.5004
 -21455929.52047 -15355167.49246  20216912.7584   20216908.0904         47.7504
        39.5004
 21  2  1  0 31  0.0000000  0  7G23G15G24G25G12G10G20
 -21869296.72347 -16286758.87546  20255340.7504   20255337.4344         45.5004
        41.5004
 -13639899.55147 -10566984.21945  21602406.7974   21602402.7344         44.0004
        34.0004
 -19060987.35947 -14671408.75448  20510285.0784   20510283.4264         47.0004
        51.2504
  -3371110.71945  -2593890.60944  23078477.4534   23078477.4184         33.5004
        28.5004
 -12822104.66047  -9559256.77746  21111207.9064   21111203.4924         45.5004
        36.0004
 -17073371.21547 -12581174.14848  21467269.5164   21467267.3794         46.2504
        48.5004
 -21437515.18048 -15340818.67246  20220416.5784   20220412.1844         48.0004
        40.0004
 21  2  1  0 31 30.0000000  0  7G23G15G24G25G12G10G20
 -21861769.48447 -16280893.50447  20256773.0234   20256769.8984         46.0004
        42.2504
 -13578835.11347 -10519401.57445  21614027.0634   21614023.1724         43.7504
        34.0004
 -19007786.32047 -14629953.39848  20520408.9304   20520407.2034         47.5004
        51.5004
  -3485004.15645  -2682638.70345  23056804.2734   23056803.9614         34.5004
        30.0004
 -12887400.94947  -9610136.97345  21098781.9844   21098778.1994         44.5004
        35.7504
 -17136061.00447 -12630023.32448  21455340.0004   21455338.3634         46.0004
        48.7504
 -21418498.39547 -15326000.42646  20224035.3284   20224031.1954         47.2504
        40.0004
 21  2  1  0 32  0.0000000  0  7G23G15G24G25G12G10G20
 -21853649.34847 -16274566.12946  20258318.5944   20258314.5044         46.0004
        41.0004
 -13517524.88747 -10471627.39845  21625694.0944   21625689.9184         44.0004
        34.0004
 -18954301.25047 -14588276.73048  20530586.9224   20530585.5354         46.2504
        51.2504
  -3598758.17645  -2771278.18045  23035157.7034   23035157.4454         32.5004
        31.7504
 -12952190.96947  -9660622.69946  21086453.7734   21086449.2584         46.2504
        36.5004
 -17198293.94547 -12678516.53148  21443497.7114   21443496.0944         47.0004
        48.7504
 -21398880.06247 -15310713.41446  20227768.6644   20227764.1484         46.7504
        39.5004
 21  2  1  0 32 30.0000000  0  7G23G15G24G25G12G10G20
 -21844936.23047 -16267776.69946  20259976.3594   20259973.0004         46.7504
        40.7504
 -13455969.05147 -10423661.82445  21637407.9384   21637403.8834         44.5004
        34.0004
 -18900533.59847 -14546379.86348  20540818.3984   20540816.7544         46.5004
        51.2504
  -3712369.98445  -2859806.85245  23013538.4224   23013538.4614         33.2504
        32.5004
 -13016472.03547  -9710711.82446  21074220.7194   21074217.1804         45.7504
        36.2504
 -17260067.64547 -12726651.88748  21431742.6334   21431740.9344         47.0004
        48.5004
 -21378660.67247 -15294958.07046  20231616.5234   20231611.8364         46.2504
        39.2504
 21  2  1  0 33  0.0000000  0  7G23G15G24G25G12G10G20
 -21835630.02047 -16260525.10946  20261747.1724   20261743.5704         46.5004
        41.0004
 -13394167.73447 -10375504.97745  21649168.0234   21649164.5824         44.5004
        34.2504
 -18846484.87547 -14504263.98448  20551103.6094   20551102.0314         46.2504
        51.0004
  -3825836.39845  -2948222.21945  22991946.5944   22991946.8554         34.5004
        34.7504
 -13080241.57847  -9760402.37546  21062085.8674   21062081.9344         45.0004
        36.7504
 -17321379.73447 -12774427.54748  21420075.2734   21420073.1024         46.2504
        48.7504
 -21357840.52347 -15278734.58246  20235578.3524   20235573.8554         47.7504
        40.0004
 21  2  1  0 33 30.0000000  0  7G23G15G24G25G12G10G20
 -21825730.64547 -16252811.32046  20263631.1484   20263627.5084         46.0004
        41.0004
 -13332121.20347 -10327157.05945  21660975.4224   21660971.5824         44.5004
        33.5004
 -18792157.96147 -14461931.32448  20561441.6254   20561439.5864         47.0004
        50.7504
  -3939154.53945  -3036522.05545  22970383.1024   22970383.2504         34.5004
        34.5004
 -13143497.07047  -9809692.35246  21050049.1954   21050044.9104         44.5004
        36.7504
 -17382227.76247 -12821841.59048  21408496.2194   21408494.3554         45.5004
        49.0004
 -21336420.37547 -15262043.57046  20239654.4614   20239650.2304         46.2504
        40.0004
 21  2  1  0 34  0.0000000  0  7G23G15G24G25G12G10G20
 -21815238.08647 -16244635.30946  20265627.8134   20265624.4344         46.5004
        41.2504
 -13269829.68747 -10278618.23045  21672828.9924   21672824.6484         44.2504
        33.7504
 -18737553.89147 -14419382.70348  20571832.7814   20571831.1604         46.2504
        51.0004
  -4052321.38346  -3124703.96545  22948847.3364   22948847.6994         36.0004
        34.2504
 -13206236.36747  -9858580.10546  21038109.9774   21038105.5354         46.0004
        36.2504
 -17442609.42247 -12868892.25448  21397005.6884   21397004.4804         46.0004
        49.0004
 -21314400.95347 -15244885.60246  20243844.6094   20243840.4344         46.2504
        39.5004
 21  2  1  0 34 30.0000000  0  7G23G15G24G25G12G10G20
 -21804152.31247 -16235997.06246  20267737.2194   20267734.1454         45.0004
        41.5004
 -13207293.50447 -10229888.77345  21684729.0864   21684725.1054         43.5004
        34.0004
 -18682674.98047 -14376619.92248  20582275.5004   20582274.1884         46.0004
        51.0004
  -4165333.88746  -3212765.65245  22927341.7344   22927342.1644         36.5004
        34.2504
 -13268456.61347  -9907063.40246  21026269.6954   21026265.1524         45.0004
        36.0004
 -17502522.33247 -12915577.63748  21385604.7424   21385603.5084         46.0004
        49.0004
 -21291782.79347 -15227261.07446  20248148.7894   20248144.4494         45.7504
        40.0004
 21  2  1  0 35  0.0000000  0  7G23G15G24G25G12G10G20
 -21792473.32847 -16226896.56646  20269959.8984   20269956.2584         46.7504
        41.5004
 -13144512.79347 -10180968.75845  21696675.8754   21696672.1724         43.5004
        33.7504
 -18627523.10247 -14333644.43448  20592770.9144   20592768.7814         46.2504
        50.5004
  -4278189.10245  -3300704.76645  22905867.1954   22905866.1374         35.0004
        34.5004
 -13330155.16447  -9955140.18746  21014528.9774   21014524.4104         45.2504
        36.5004
 -17561964.19147 -12961895.95348  21374293.7274   21374291.7974         46.0004
        49.5004
 -21268566.75047 -15209170.66046  20252566.6174   20252562.6564         46.5004
        40.5004
 21  2  1  0 35 30.0000000  0  7G23G15G24G25G12G10G20
 -21780201.19147 -16217333.87146  20272295.2424   20272291.6374         46.2504
        41.5004
 -13081487.93047 -10131858.50845  21708669.0864   21708665.6024         43.7504
        33.5004
 -18572100.07847 -14290457.66448  20603317.3594   20603315.6134         46.5004
        50.5004
  -4390884.00046  -3388518.97345  22884421.3524   22884420.8754         36.7504
        34.7504
 -13391329.96547 -10002808.85246  21002887.9064   21002883.3754         45.0004
        36.7504
 -17620932.61747 -13007845.39848  21363071.9614   21363070.3554         47.0004
        49.5004
 -21244753.89147 -15190615.20346  20257098.2584   20257093.5474         47.0004
        39.0004
 21  2  1  0 36  0.0000000  0  7G23G15G24G25G12G10G20
 -21767335.94947 -16207309.02046  20274743.2974   20274740.3364         46.0004
        41.2504
 -13018218.56247 -10082557.70345  21720708.8674   21720704.5164         43.7504
        33.0004
 -18516407.50847 -14247060.85948  20613915.0164   20613913.6804         47.0004
        50.2504
  -4503415.62546  -3476205.93045  22863006.6094   22863006.3914         38.0004
        35.0004
 -13451978.48047 -10050067.41846  20991346.8594   20991342.1134         45.2504
        36.5004
 -17679425.30147 -13053424.11348  21351941.1484   21351939.7734         46.0004
        49.5004
 -21220343.69147 -15171594.28146  20261742.9454   20261738.2814         47.2504
        39.7504
 21  2  1  0 36 30.0000000  0  7G23G15G24G25G12G10G20
 -21753877.69547 -16196822.07846  20277304.3834   20277300.6994         46.2504
        41.0004
 -12954705.60947 -10033067.11745  21732794.8524   21732791.5864         43.7504
        34.0004
 -18460447.41847 -14203455.59848  20624564.1334   20624562.2194         47.0004
        50.2504
  -4615780.90246  -3563763.27345  22841624.4534   22841624.6914         37.2504
        35.5004
 -13512098.35247 -10096914.08646  20979906.2974   20979902.0864         45.5004
        36.2504
 -17737439.92647 -13098630.31248  21340901.0234   21340900.1254         47.2504
        49.5004
 -21195337.88747 -15152109.25846  20266502.0394   20266497.5704         47.5004
        40.0004
 21  2  1  0 37  0.0000000  0  7G23G15G24G25G12G10G20
 -21739826.55147 -16185873.12946  20279977.8834   20279974.9264         45.5004
        41.0004
 -12890949.31247  -9983386.94145  21744927.3524   21744924.2624         43.2504
        33.0004
 -18404221.32847 -14159643.07448  20635263.6254   20635261.8204         46.7504
        50.2504
  -4727976.84446  -3651188.65646  22820274.8284   22820274.5594         37.7504
        37.0004
 -13571686.87147 -10143346.67246  20968566.7274   20968562.9064         44.7504
        36.7504
 -17794974.19547 -13143462.21548  21329953.3364   21329951.5904         47.0004
        49.5004
 -21169736.98847 -15132160.50846  20271372.7114   20271368.5314         46.2504
        39.5004
 21  2  1  0 37 30.0000000  0  7G23G15G24G25G12G10G20
 -21725182.61347 -16174462.27746  20282764.6484   20282761.6094         47.5004
        40.7504
 -12826949.71947  -9933517.13745  21757106.1334   21757102.2464         43.7504
        32.2504
 -18347732.07847 -14115625.47748  20646013.2424   20646011.7664         46.2504
        50.2504
  -4840000.42246  -3738479.73846  22798957.2894   22798956.9064         39.0004
        37.5004
 -13630741.95347 -10189363.60946  20957329.3444   20957325.0474         44.5004
        36.5004
 -17852025.82847 -13187918.03948  21319096.4384   21319094.8984         46.2504
        49.5004
 -21143542.23847 -15111749.03146  20276358.0314   20276353.7584         47.5004
        40.0004
 21  2  1  0 38  0.0000000  0  7G23G15G24G25G12G10G20
 -21709946.07447 -16162589.66046  20285664.3984   20285660.4694         46.0004
        40.2504
 -12762707.33247  -9883458.15645  21769331.2504   21769327.3284         44.7504
        33.0004
 -18290980.39547 -14071403.39148  20656811.9924   20656810.8204         45.5004
        50.0004
  -4951848.67646  -3825634.20746  22777673.3524   22777672.7234         40.0004
        38.2504
 -13689261.03947 -10234962.88746  20946193.0474   20946189.3794         45.2504
        37.0004
 -17908592.56647 -13231996.02048  21308332.1484   21308330.5554         47.2504
        50.0004
 -21116753.91447 -15090875.03146  20281455.8594   20281451.6024         47.0004
        40.0004
 21  2  1  0 38 30.0000000  0  7G23G15G24G25G12G10G20
 -21694117.13747 -16150255.42646  20288676.4454   20288672.6524         45.7504
        40.7504
 -12698222.05947  -9833209.90645  21781602.4064   21781598.0704         44.5004
        33.2504
 -18233968.85247 -14026978.81648  20667661.7194   20667659.7854         46.7504
        50.2504
  -5063518.56246  -3912649.68046  22756423.5864   22756422.8244         40.5004
        39.0004
 -13747241.72747 -10280142.62546  20935159.5784   20935155.3324         44.2504
        37.0004
 -17964672.08647 -13275694.35548  21297660.4224   21297659.0204         46.0004
        49.5004
 -21089372.93747 -15069539.21546  20286665.9304   20286662.0234         47.2504
        39.5004
 21  2  1  0 39  0.0000000  0  7G23G15G24G25G12G10G20
 -21677696.00847 -16137459.74246  20291801.3284   20291798.4264         47.7504
        41.2504
 -12633494.26247  -9782772.69145  21793920.2424   21793915.9774         45.0004
        33.2504
 -18176699.03547 -13982352.99248  20678559.4774   20678557.7464         46.2504
        50.0004
  -5175007.07846  -3999523.83246  22735208.0704   22735207.0984         40.2504
        38.2504
 -13804681.81247 -10324901.11746  20924229.7274   20924225.0474         45.7504
        36.7504
 -18020262.19547 -13319011.32848  21287082.2894   21287081.0394         47.5004
        50.0004
 -21061400.37947 -15047742.42646  20291988.8524   20291984.6994         46.7504
        39.0004
 21  2  1  0 39 30.0000000  0  7G23G15G24G25G12G10G20
 -21660682.91047 -16124202.79746  20295038.9614   20295035.9144         47.0004
        40.5004
 -12568524.20747  -9732146.69945  21806282.7664   21806278.8014         43.2504
        33.0004
 -18119172.72347 -13937527.30548  20689506.9614   20689504.8834         46.0004
        50.0004
  -5286311.20746  -4086254.33246  22714027.0314   22714026.2154         39.0004
        37.5004
 -13861579.11347 -10369236.68046  20913402.2734   20913397.9344         47.0004
        37.0004
 -18075360.68447 -13361945.21148  21276597.2894   21276595.6174         47.5004
        50.0004
 -21032837.08647 -15025485.32446  20297424.5314   20297420.0084         46.5004
        39.5004
 21  2  1  0 40  0.0000000  0  7G23G15G24G25G12G10G20
 -21643078.14147 -16110484.80146  20298389.0314   20298385.2704         47.5004
        40.7504
 -12503312.19947  -9681332.16045  21818692.8204   21818689.2154         44.5004
        33.5004
 -18061391.78947 -13892503.21548  20700502.0164   20700500.2544         46.5004
        50.0004
  -5397428.00446  -4172838.81246  22692881.5234   22692881.1604         38.5004
        37.5004
 -13917931.45347 -10413147.58246  20902679.1414   20902674.7304         46.5004
        37.7504
 -18129965.27747 -13404494.24248  21266206.2814   21266204.7504         47.0004
        50.2504
 -21003684.03547 -15002768.66846  20302972.0554   20302967.9844         45.7504
        38.7504
 21  2  1  0 40 30.0000000  0  7G23G15G24G25G12G10G20
 -21624881.96147 -16096305.96946  20301851.6174   20301848.5164         47.7504
        40.5004
 -12437858.53947  -9630329.33645  21831147.7584   21831144.3674         44.0004
        33.0004
 -18003357.83247 -13847281.96148  20711545.2344   20711544.0664         46.0004
        50.0004
  -5508354.35946  -4259274.89346  22671772.8984   22671772.8444         38.5004
        38.0004
 -13973736.14547 -10456631.75046  20892059.3054   20892054.9964         45.0004
        36.5004
 -18184073.81647 -13446656.74648  21255910.3674   21255908.5514         47.2504
        50.5004
 -20973942.12947 -14979593.16446  20308631.8204   20308627.7894         46.5004
        39.5004
 21  2  1  0 41  0.0000000  0  7G23G15G24G25G12G10G20
 -21606094.70747 -16081666.56246  20305426.3204   20305422.9384         46.2504
        40.5004
 -12372163.63747  -9579138.52045  21843648.9534   21843645.0124         43.0004
        32.5004
 -17945073.02347 -13801865.22748  20722636.7034   20722635.1484         46.0004
        50.0004
  -5619087.34046  -4345560.32846  22650702.2114   22650701.2814         38.7504
        39.2504
 -14028991.22347 -10499687.65246  20881544.9614   20881540.2974         46.0004
        37.5004
 -18237684.05947 -13488430.94548  21245707.9844   21245706.6094         47.5004
        50.2504
 -20943612.34047 -14955959.58246  20314403.4534   20314398.9964         46.0004
        38.5004
 21  2  1  0 41 30.0000000  0  7G23G15G24G25G12G10G20
 -21586716.70747 -16066566.84046  20309114.2504   20309110.8244         47.5004
        40.7504
 -12306227.65247  -9527759.86745  21856196.3674   21856192.9304         43.5004
        33.5004
 -17886538.91847 -13756254.23848  20733775.1884   20733773.7304         47.0004
        49.7504
  -5729623.86346  -4431692.66446  22629668.6174   22629667.3674         39.2504
        39.7504
 -14083694.42647 -10542313.52046  20871134.9304   20871130.9694         46.0004
        38.5004
 -18290793.85547 -13529815.20748  21235601.6804   21235599.4144         46.7504
        50.0004
 -20912695.68047 -14931868.68746  20320286.9454   20320282.9614         46.7504
        39.0004
 21  2  1  0 42  0.0000000  0  7G23G15G24G25G12G10G20
 -21566748.34847 -16051007.08246  20312913.9454   20312909.9454         47.2504
        41.0004
 -12240050.84447  -9476193.53545  21868789.3134   21868785.4384         43.2504
        32.5004
 -17827757.55547 -13710450.59048  20744961.0864   20744959.0904         45.7504
        49.5004
  -5839960.94946  -4517669.59846  22608670.7814   22608670.6294         38.7504
        39.0004
 -14137843.60947 -10584507.67246  20860830.5864   20860826.4884         45.7504
        37.2504
 -18343401.02047 -13570807.81648  21225590.9924   21225588.6024         46.5004
        49.7504
 -20881193.24647 -14907321.35946  20326281.2584   20326277.3984         45.5004
        39.2504
 21  2  1  0 42 30.0000000  0  7G23G15G24G25G12G10G20
 -21546189.98047 -16034987.59846  20316826.3134   20316822.6914         47.2504
        41.0004
 -12173633.47747  -9424439.76645  21881428.3834   21881424.3954         43.2504
        32.5004
 -17768730.38747 -13664455.40248  20756193.5554   20756192.0634         45.7504
        50.0004
  -5950095.57846  -4603488.76646  22587712.9064   22587712.4654         39.0004
        39.0004
 -14191436.63347 -10626268.45346  20850632.6094   20850628.6254         45.5004
        37.5004
 -18395503.47748 -13611407.12948  21215676.3444   21215674.1914         48.0004
        50.2504
 -20849106.25047 -14882318.51246  20332387.3754   20332383.0984         46.0004
        39.5004
 21  2  1  0 43  0.0000000  0  7G23G15G24G25G12G10G20
 -21525042.09048 -16018508.72746  20320850.6724   20320847.2074         48.0004
        40.7504
 -12106975.92247  -9372498.83645  21894112.9534   21894108.8594         43.7504
        33.0004
 -17709459.60547 -13618270.39548  20767472.6644   20767470.7774         46.0004
        49.7504
  -6060024.80146  -4689147.88746  22566794.4144   22566793.1724         40.0004
        38.2504
 -14244471.09847 -10667594.01646  20840540.3444   20840535.9384         45.0004
        38.2504
 -18447099.01647 -13651611.45748  21205857.9144   21205855.8094         47.0004
        50.0004
 -20816435.69547 -14856860.94146  20338604.1024   20338600.2664         45.2504
        39.2504
 21  2  1  0 43 30.0000000  0  7G23G15G24G25G12G10G20
 -21503305.10247 -16001570.83646  20324986.7584   20324983.5044         47.7504
        40.5004
 -12040078.67647  -9320371.13745  21906843.4614   21906839.0044         43.7504
        32.5004
 -17649946.62947 -13571896.64148  20778797.5314   20778795.8364         47.5004
        50.0004
  -6169745.50046  -4774644.52046  22545914.9694   22545914.7114         39.0004
        38.0004
 -14296945.04347 -10708482.78146  20830554.9064   20830551.0164         45.5004
        38.2504
 -18498185.50047 -13691419.12148  21196136.6254   21196134.2664         46.7504
        50.0004
 -20783182.54747 -14830949.41446  20344932.2274   20344927.9344         45.5004
        39.0004
 21  2  1  0 44  0.0000000  0  7G23G15G24G25G12G10G20
 -21480979.42247 -15984174.20346  20329235.0314   20329231.7814         47.2504
        40.2504
 -11972941.85547  -9268056.75445  21919619.3204   21919614.4534         43.7504
        32.5004
 -17590193.92247 -13525336.09448  20790167.8834   20790166.7114         46.7504
        49.7504
  -6279254.78146  -4859976.40646  22525075.8594   22525074.9534         37.5004
        37.2504
 -14348856.16047 -10748932.99646  20820676.7274   20820672.3164         46.7504
        38.5004
 -18548760.87147 -13730828.49248  21186512.3134   21186510.4844         47.0004
        50.5004
 -20749348.09047 -14804584.91446  20351370.7034   20351366.6484         46.5004
        39.2504
 21  2  1  0 44 30.0000000  0  7G23G15G24G25G12G10G20
 -21458065.60947 -15966319.30146  20333595.2664   20333592.1804         47.5004
        40.5004
 -11905565.92647  -9215556.04745  21932440.0634   21932435.7504         43.0004
        31.7504
 -17530202.46547 -13478589.50848  20801584.3284   20801582.0744         46.5004
        49.5004
  -6388549.53146  -4945141.10946  22504277.3524   22504277.8634         37.5004
        37.7504
 -14400202.54747 -10788943.16446  20810905.3754   20810901.4654         47.2504
        38.0004
 -18598823.04347 -13769837.98048  21176986.1724   21176984.6454         47.5004
        51.0004
 -20714933.35547 -14777768.25446  20357919.8674   20357914.9184         46.0004
        39.0004
 21  2  1  0 45  0.0000000  0  7G23G15G24G25G12G10G20
 -21434564.13347 -15948006.47746  20338067.8914   20338064.2704         47.5004
        39.7504
 -11837951.08647  -9162869.18745  21945306.8204   21945303.0824         43.2504
        32.2504
 -17469974.65647 -13431658.74248  20813044.9844   20813043.5234         46.7504
        49.5004
  -6497626.82846  -5030136.38346  22483520.8134   22483520.1994         38.0004
        37.2504
 -14450982.16047 -10828511.67646  20801242.5474   20801238.3134         46.2504
        38.7504
 -18648369.93448 -13808445.94948  21167557.5394   21167555.2664         48.0004
        51.0004
 -20679939.68047 -14750500.46946  20364578.7344   20364574.2384         46.2504
        39.5004
 21  2  1  0 45 30.0000000  0  7G23G15G24G25G12G10G20
 -21410475.55947 -15929236.16846  20342651.3204   20342648.1414         46.5004
        40.7504
 -11770097.46147  -9109996.26645  21958218.8834   21958214.7274         42.2504
        31.5004
 -17409512.03947 -13384545.02748  20824550.6954   20824549.1804         46.0004
        49.5004
  -6606483.62946  -5114959.83246  22462806.1094   22462805.0864         39.0004
        37.7504
 -14501192.85947 -10867636.89146  20791687.7424   20791683.3324         46.0004
        38.0004
 -18697399.46947 -13846650.79748  21158227.6254   21158225.4344         47.7504
        50.7504
 -20644367.97347 -14722782.28146  20371347.8984   20371343.2344         46.7504
        39.0004
 21  2  1  0 46  0.0000000  0  7G23G15G24G25G12G10G20
 -21385800.45747 -15910008.83246  20347347.3594   20347343.7894         47.0004
        40.5004
 -11702005.50047  -9056937.61745  21971176.4534   21971172.6914         42.5004
        32.0004
 -17348816.77747 -13337250.02748  20836100.6884   20836099.1844         46.5004
        49.7504
  -6715116.87946  -5199609.12546  22442134.1724   22442133.6524         38.7504
        39.0004
 -14550832.69547 -10906317.26646  20782241.7274   20782237.6564         45.5004
        38.0004
 -18745909.63747 -13884450.93048  21148995.8204   21148994.1644         47.0004
        50.5004
 -20608219.85547 -14694614.92646  20378226.3524   20378222.4654         46.0004
        38.7504
 21  2  1  0 46 30.0000000  0  7G23G15G24G25G12G10G20
 -21360539.43747 -15890324.93446  20352154.2344   20352150.9494         47.0004
        40.2504
 -11633675.82047  -9003693.75045  21984178.9144   21984174.8954         43.0004
        32.2504
 -17287889.84447 -13289774.50448  20847694.7034   20847692.8164         46.7504
        49.2504
  -6823523.58646  -5284081.87946  22421504.9614   22421504.0274         38.7504
        39.7504
 -14599899.95347 -10944551.47346  20772904.4064   20772900.3634         45.2504
        37.7504
 -18793898.37147 -13921844.75848  21139864.5394   21139862.1134         47.5004
        50.7504
 -20571496.40247 -14665999.27346  20385214.5164   20385210.0274         45.5004
        38.0004
 21  2  1  0 47  0.0000000  0  7G23G15G24G25G12G10G20
 -21334693.12547 -15870184.96146  20357072.6334   20357069.5354         46.7504
        40.0004
 -11565108.35246  -8950264.57645  21997226.7274   21997223.2774         41.7504
        31.0004
 -17226733.69547 -13242120.37148  20859332.1024   20859330.5314         46.0004
        49.0004
  -6931700.86346  -5368375.82046  22400919.8134   22400918.5124         38.5004
        40.0004
 -14648392.43047 -10982337.81246  20763676.5314   20763672.3204         45.0004
        37.5004
 -18841363.69547 -13958830.73448  21130832.0394   21130830.7034         46.5004
        50.5004
 -20534198.73447 -14636936.18446  20392312.6094   20392308.5474         46.7504
        39.0004
 21  2  1  0 47 30.0000000  0  7G23G15G24G25G12G10G20
 -21308262.15647 -15849589.42246  20362102.2894   20362099.2734         46.5004
        39.5004
 -11496303.84847  -8896650.70745  22010320.1564   22010316.0474         42.5004
        31.2504
 -17165349.72747 -13194288.71548  20871013.0704   20871011.5904         46.0004
        48.7504
  -7039645.52746  -5452488.50446  22380378.1484   22380377.3874         39.0004
        38.7504
 -14696307.91047 -11019674.53546  20754558.4384   20754553.9804         45.7504
        37.2504
 -18888303.59448 -13995407.30148  21121899.2344   21121897.2854         48.2504
        50.7504
 -20496328.44147 -14607426.87146  20399518.8054   20399514.5704         46.5004
        38.7504
 21  2  1  0 48  0.0000000  0  7G23G15G24G25G12G10G20
 -21281247.19547 -15828538.82046  20367242.8754   20367239.3754         46.0004
        40.0004
 -11427262.39847  -8842852.19545  22023458.5004   22023455.2774         43.2504
        32.5004
 -17103739.64547 -13146280.86348  20882737.0394   20882735.5164         46.2504
        48.7504
  -7147354.68746  -5536417.70746  22359882.2584   22359880.6994         39.7504
        39.7504
 -14743644.57847 -11056560.25046  20745550.6564   20745546.6254         45.2504
        37.5004
 -18934716.10947 -14031572.90248  21113067.8754   21113065.5594         47.0004
        50.5004
 -20457886.70347 -14577472.28946  20406834.3524   20406829.8714         46.5004
        38.2504
 21  2  1  0 48 30.0000000  0  7G23G15G24G25G12G10G20
 -21253648.94147 -15807033.70346  20372494.8204   20372491.5984         46.2504
        39.7504
 -11357984.29347  -8788869.30545  22036641.0634   22036638.3674         43.2504
        32.5004
 -17041905.38347 -13098098.32847  20894503.4844   20894502.2194         45.0004
        42.0004
  -7254825.28946  -5620161.03546  22339431.4694   22339429.8164         39.7504
        39.0004
 -14790400.55147 -11092993.46546  20736653.2034   20736648.8954         45.2504
        37.5004
 -18980599.27047 -14067326.03148  21104336.3914   21104334.6604         47.5004
        50.7504
 -20418874.85247 -14547073.46146  20414258.2664   20414254.1844         46.2504
        39.0004
 21  2  1  0 49  0.0000000  0  7G23G15G24G25G12G10G20
 -21225468.11747 -15785074.62146  20377857.5394   20377853.8594         46.5004
        40.0004
 -11288470.03547  -8734702.37945  22049869.5554   22049866.1374         43.7504
        33.2504
 -16979848.55147 -13049742.36746  20906312.5554   20906311.1524         45.0004
        41.2504
  -7362054.39846  -5703716.16446  22319025.9144   22319025.7344         39.2504
        39.7504
 -14836573.91847 -11128972.69946  20727867.0634   20727862.7194         45.2504
        37.7504
 -19025951.13747 -14102665.15248  21095705.8524   21095704.2734         47.2504
        50.2504
 -20379294.47347 -14516231.62546  20421789.6094   20421785.7344         46.5004
        39.2504
 21  2  1  0 49 30.0000000  0  7G23G15G24G25G12G10G20
 -21196705.46947 -15762662.18446  20383331.1024   20383326.8874         46.5004
        40.0004
 -11218719.93447  -8680351.67645  22063142.9144   22063138.7544         43.5004
        33.7504
 -16917571.16447 -13001214.53946  20918164.3054   20918161.8364         44.2504
        37.7504
  -7469038.97746  -5787080.72346  22298666.6724   22298666.8984         38.5004
        39.5004
 -14882162.85547 -11164496.53546  20719191.6644   20719187.5124         46.2504
        37.7504
 -19070769.79748 -14137588.79748  21087177.4924   21087175.3164         48.5004
        50.5004
 -20339146.85547 -14484947.78146  20429429.5394   20429425.5394         45.5004
        38.5004
 21  2  1  0 50  0.0000000  0  7G23G15G24G25G12G10G20
 -21167361.77047 -15739796.98446  20388914.9384   20388911.6764         46.0004
        39.7504
 -11148734.46947  -8625817.55145  22076460.5474   22076456.7234         42.7504
        33.5004
 -16855074.68747 -12952515.99246  20930056.7424   20930054.5514         45.0004
        38.0004
  -7575776.02746  -5870252.41446  22278355.5084   22278355.8484         38.5004
        39.7504
 -14927165.92247 -11199563.84846  20710627.8674   20710623.4414         46.2504
        37.7504
 -19115053.31247 -14172095.43448  21078750.3284   21078748.5434         47.5004
        50.5004
 -20298433.42247 -14453223.03946  20437177.2734   20437172.9964         45.2504
        38.5004
 21  2  1  0 50 30.0000000  0  7G23G15G24G25G12G10G20
 -21137437.79347 -15716479.62546  20394609.0234   20394605.9304         46.0004
        40.0004
 -11078513.84447  -8571100.22745  22089822.5314   22089819.9884         43.2504
        33.0004
 -16792361.15647 -12903648.30946  20941990.7114   20941989.0044         45.0004
        38.0004
  -7682262.54746  -5953228.89846  22258092.3594   22258091.3014         38.0004
        40.0004
 -14971581.19147 -11234173.13746  20702175.9224   20702171.8094         46.0004
        38.0004
 -19158799.81248 -14206183.63348  21070425.7734   21070423.9224         48.0004
        50.7504
 -20257155.60247 -14421058.52746  20445031.7664   20445028.3284         45.2504
        39.7504
 21  2  1  0 51  0.0000000  0  7G23G15G24G25G12G10G20
 -21106934.37547 -15692710.73446  20400413.9304   20400410.9184         46.0004
        40.5004
 -11008058.62146  -8516200.09845  22103230.4774   22103226.5514         41.7504
        31.5004
 -16729431.83247 -12854612.48446  20953965.4534   20953963.8094         45.5004
        38.0004
  -7788495.54746  -6036007.82846  22237877.2034   22237876.4064         39.0004
        40.0004
 -15015406.44147 -11268322.67246  20693835.9774   20693831.9264         46.5004
        37.7504
 -19202007.39848 -14239851.90248  21062204.0864   21062202.2974         48.2504
        51.0004
 -20215314.88747 -14388455.38746  20452994.3364   20452989.9844         45.5004
        38.7504
 21  2  1  0 51 30.0000000  0  7G23G15G24G25G12G10G20
 -21075852.38347 -15668491.01246  20406328.3134   20406324.7584         45.7504
        40.5004
 -10937368.95747  -8461117.27045  22116682.2424   22116678.6644         43.0004
        33.0004
 -16666289.03147 -12805410.31246  20965981.3364   20965979.7194         45.5004
        38.2504
  -7894472.05546  -6118586.90246  22217710.2194   22217709.5744         40.0004
        40.5004
 -15058640.01647 -11302011.16446  20685608.8364   20685604.7234         46.5004
        38.0004
 -19244674.28548 -14273098.83248  21054084.4614   21054082.7114         48.2504
        51.0004
 -20172912.82447 -14355414.82446  20461063.1564   20461059.0594         46.0004
        39.2504
 21  2  1  0 52  0.0000000  0  7G23G15G24G25G12G10G20
 -21044192.64547 -15643821.09846  20412353.2734   20412350.2194         46.0004
        39.7504
 -10866445.27347  -8405852.08645  22130178.2424   22130174.4734         42.5004
        33.2504
 -16602933.66047 -12756042.52046  20978037.7194   20978036.0474         45.0004
        38.0004
  -8000189.09446  -6200963.78546  22197593.2114   22197592.3984         40.5004
        41.0004
 -15101280.41847 -11335237.44546  20677495.0314   20677490.3874         46.2504
        38.0004
 -19286798.55548 -14305922.95348  21046068.8284   21046066.7544         49.0004
        51.0004
 -20129950.87147 -14321937.99646  20469238.4774   20469234.3834         45.7504
        39.0004
 21  2  1  0 52 30.0000000  0  7G23G15G24G25G12G10G20
 -21011956.09047 -15618701.71146  20418487.5864   20418484.2194         46.0004
        39.7504
 -10795288.01646  -8350404.88345  22143719.1564   22143715.5434         41.5004
        33.2504
 -16539368.06647 -12706510.89546  20990133.3674   20990131.6334         45.2504
        37.7504
  -8105643.61746  -6283136.13746  22177526.0634   22177525.0164         40.0004
        41.0004
 -15143325.73047 -11368000.02046  20669493.8444   20669489.4844         47.2504
        38.0004
 -19328378.47348 -14338322.89548  21038156.1954   21038154.6764         49.0004
        51.2504
 -20086430.73047 -14288026.20746  20477519.9844   20477515.9024         46.2504
        39.0004
 21  2  1  0 53  0.0000000  0  7G23G15G24G25G12G10G20
 -20979143.60547 -15593133.55946  20424731.3444   20424728.2234         46.0004
        39.7504
 -10723897.64546  -8294776.06645  22157304.4614   22157300.5204         41.2504
        32.2504
 -16475594.16047 -12656816.94946  21002269.1724   21002267.8204         46.2504
        38.0004
  -8210832.73846  -6365101.65646  22157508.6174   22157508.1054         40.0004
        41.2504
 -15184774.42247 -11400297.68746  20661606.1954   20661602.2504         47.5004
        38.0004
 -19369412.16048 -14370297.21948  21030347.6334   21030346.1994         49.0004
        51.2504
 -20042353.91847 -14253680.66046  20485907.3984   20485903.9064         46.0004
        38.5004
 21  2  1  0 53 30.0000000  0  7G23G15G24G25G12G10G20
 -20945756.15247 -15567117.37546  20431085.0944   20431081.8834         46.2504
        40.0004
 -10652274.68446  -8238966.00445  22170933.7584   22170930.2274         41.5004
        32.5004
 -16411612.64147 -12606961.23046  21014444.7194   21014443.3284         45.2504
        38.0004
  -8315753.40647  -6446858.00846  22137543.1024   22137541.8164         42.0004
        41.0004
 -15225624.62147 -11432129.00446  20653832.8754   20653829.2234         47.5004
        39.0004
 -19409897.88348 -14401844.54348  21022643.7274   21022641.9654         49.2504
        51.2504
 -19997721.88347 -14218902.46546  20494401.0084   20494396.6214         46.2504
        38.7504
 21  2  1  0 54  0.0000000  0  7G23G15G24G25G12G10G20
 -20911794.72347 -15540653.93746  20437548.1564   20437544.4654         46.5004
        40.0004
 -10580419.33646  -8182974.82445  22184607.1094   22184603.8674         41.5004
        32.0004
 -16347426.39847 -12556945.98846  21026659.0864   21026657.5044         47.0004
        37.5004
  -8420402.69147  -6528402.85946  22117628.7034   22117628.4774         42.2504
        41.0004
 -15265874.94147 -11463492.86746  20646173.5004   20646169.1954         46.0004
        38.0004
 -19449833.86748 -14432963.49648  21015043.9614   21015042.3794         49.5004
        51.5004
 -19952536.32047 -14183692.93446  20502999.3204   20502995.2344         46.0004
        39.5004
 21  2  1  0 54 30.0000000  0  7G23G15G24G25G12G10G20
 -20877260.27047 -15513744.00046  20444118.9844   20444116.0824         46.2504
        40.0004
 -10508332.02746  -8126802.93745  22198324.6094   22198321.2664         41.2504
        31.5004
 -16283036.17247 -12506771.78146  21038911.8284   21038910.2734         45.2504
        37.5004
  -8524777.58246  -6609733.91846  22097766.6804   22097766.2344         40.5004
        40.7504
 -15305523.73447 -11494388.02346  20638628.6174   20638624.1294         47.2504
        38.2504
 -19489218.39548 -14463652.73448  21007549.0634   21007547.6564         49.0004
        51.5004
 -19906798.88347 -14148053.38746  20511702.6484   20511698.6994         46.5004
        39.0004
 21  2  1  0 55  0.0000000  0  7G23G15G24G25G12G10G20
 -20842153.83647 -15486388.34846  20450799.9454   20450796.1954         46.5004
        40.0004
 -10436013.03946  -8070450.51245  22212086.6334   22212083.2664         41.0004
        31.0004
 -16218444.09847 -12456440.32046  21051203.2664   21051201.8714         45.5004
        37.7504
  -8628875.14146  -6690848.86746  22077957.6724   22077957.2544         40.7504
        41.0004
 -15344569.52747 -11524813.30946  20631198.0864   20631194.4024         47.0004
        39.0004
 -19528049.70348 -14493910.91448  21000159.7814   21000158.0434         48.5004
        51.5004
 -19860511.18047 -14111985.06646  20520510.9774   20520507.2624         45.7504
        38.2504
 21  2  1  0 55 30.0000000  0  7G23G15G24G25G12G10G20
 -20806476.43047 -15458587.77346  20457589.4774   20457586.1174         46.2504
        40.0004
 -10363463.02747  -8013918.05145  22225892.8834   22225889.0124         43.0004
        31.7504
 -16153651.66847 -12405952.71946  21063532.8914   21063531.0004         45.2504
        36.7504
  -8732692.42246  -6771745.41046  22058201.7974   22058201.2424         40.2504
        41.0004
 -15383010.59048 -11554767.38346  20623883.4144   20623879.0394         48.0004
        38.7504
 -19566326.14848 -14523736.71148  20992876.0474   20992874.7154         49.0004
        51.5004
 -19813674.98047 -14075489.33646  20529423.5164   20529419.2544         46.5004
        38.7504
 21  2  1  0 56  0.0000000  0  7G23G15G24G25G12G10G20
 -20770229.16047 -15430343.17246  20464486.6564   20464483.9024         45.7504
        39.5004
 -10290682.34847  -7957205.84845  22239742.2584   22239738.4574         42.5004
        31.5004
 -16088660.82047 -12355310.52046  21075900.2034   21075898.4774         44.5004
        36.7504
  -8836226.40646  -6852421.23046  22038500.4384   22038499.1524         41.2504
        41.0004
 -15420845.27347 -11584248.94146  20616683.3984   20616678.7734         47.5004
        39.5004
 -19604045.95748 -14553128.79348  20985698.3524   20985696.7584         49.2504
        51.5004
 -19766291.92647 -14038567.47746  20538440.2734   20538436.0704         45.5004
        38.2504
 21  2  1  0 56 30.0000000  0  7G23G15G24G25G12G10G20
 -20733413.05147 -15401655.31246  20471492.9224   20471489.8094         46.2504
        40.0004
 -10217671.35547  -7900314.19945  22253636.5314   22253632.4344         42.0004
        31.5004
 -16023473.00447 -12304514.81246  21088304.9304   21088303.2074         44.5004
        36.2504
  -8939474.18446  -6932874.02346  22018852.4384   22018851.8014         41.5004
        41.7504
 -15458072.31247 -11613257.03546  20609599.4304   20609595.2074         47.0004
        38.7504
 -19641207.55148 -14582085.88348  20978626.7584   20978625.2384         48.5004
        51.5004
 -19718363.69147 -14001220.81646  20547560.7344   20547556.7624         45.2504
        38.2504
 21  2  1  0 57  0.0000000  0  7G23G15G24G25G12G10G20
 -20696029.26647 -15372525.08246  20478606.6484   20478603.4344         45.7504
        40.0004
 -10144430.68447  -7843243.57845  22267573.6484   22267570.0474         42.0004
        31.7504
 -15958089.59847 -12253566.70746  21100747.4064   21100745.6524         43.7504
        37.0004
  -9042432.75847  -7013101.46947  21999260.6954   21999259.3714         42.0004
        42.5004
 -15494690.18448 -11641790.44546  20602632.2894   20602627.2304         48.0004
        39.7504
 -19677809.27748 -14610606.71148  20971661.6094   20971660.1174         49.2504
        52.0004
 -19669892.01647 -13963450.68746  20556784.8284   20556780.6174         46.2504
        38.0004
 21  2  1  0 57 30.0000000  0  7G23G15G24G25G12G10G20
 -20658078.94147 -15342953.41846  20485828.2424   20485825.2234         46.0004
        39.5004
 -10070960.78547  -7785994.34045  22281554.4844   22281550.7344         42.5004
        31.5004
 -15892512.32447 -12202467.55546  21113226.1724   21113224.8484         44.5004
        36.5004
  -9145099.19946  -7093101.26646  21979723.0314   21979722.9534         41.0004
        41.7504
 -15530697.42247 -11669847.98446  20595779.5944   20595774.3984         47.5004
        39.5004
 -19713849.48848 -14638690.01248  20964803.7034   20964802.2194         49.0004
        52.0004
 -19620878.85247 -13925258.63346  20566111.3364   20566107.8094         45.0004
        37.5004
 21  2  1  0 58  0.0000000  0  7G23G15G24G25G12G10G20
 -20619563.19947 -15312941.16046  20493157.3364   20493154.4884         46.7504
        39.0004
  -9997261.97747  -7728566.73045  22295578.6024   22295575.8094         43.2504
        32.5004
 -15826743.35547 -12151219.00446  21125742.1174   21125739.9924         45.0004
        37.5004
  -9247470.57846  -7172871.14146  21960243.1564   21960242.3134         39.5004
        41.5004
 -15566092.44947 -11697428.52346  20589043.6564   20589039.3754         47.0004
        39.2504
 -19749326.59848 -14666334.51248  20958052.5634   20958050.9494         49.2504
        52.0004
 -19571325.80947 -13886645.89146  20575541.4454   20575537.3134         47.0004
        38.5004
 21  2  1  0 58 30.0000000  0  7G23G15G24G25G12G10G20
 -20580483.29347 -15282489.30946  20500594.2194   20500590.9384         46.0004
        39.2504
  -9923334.62147  -7670961.02745  22309646.2424   22309643.1254         42.7504
        31.7504
 -15760783.77747 -12099821.94146  21138293.6334   21138291.5704         44.5004
        36.7504
  -9349543.99246  -7252408.83646  21940818.5164   21940817.6454         40.2504
        41.2504
 -15600874.00447 -11724531.02046  20582425.1254   20582421.1564         47.0004
        39.0004
 -19784239.05148 -14693539.01648  20951409.0784   20951407.3674         49.0004
        52.5004
 -19521234.77347 -13847613.91846  20585073.2424   20585068.9184         46.5004
        38.0004
 21  2  1  0 59  0.0000000  0  7G23G15G24G25G12G10G20
 -20540840.33647 -15251598.70746  20508137.9064   20508134.5514         46.2504
        39.5004
  -9849178.98847  -7613177.44545  22323758.0474   22323754.0394         42.5004
        30.5004
 -15694635.30547 -12048277.68046  21150881.3134   21150879.3674         44.0004
        36.7504
  -9451316.41846  -7331712.02046  21921452.2114   21921451.2704         40.2504
        41.0004
 -15635040.75447 -11751154.43446  20575923.3594   20575918.9344         47.0004
        39.0004
 -19818585.19548 -14720302.26648  20944872.6804   20944871.1954         48.5004
        52.0004
 -19470607.50847 -13808164.10246  20594707.4064   20594702.6994         46.5004
        37.5004
 21  2  1  0 59 30.0000000  0  7G23G15G24G25G12G10G20
 -20500635.62547 -15220270.37146  20515788.8444   20515785.2464         46.2504
        39.0004
  -9774795.69547  -7555216.48045  22337913.0554   22337909.7304         43.0004
        31.7504
 -15628299.77347 -11996587.65246  21163504.1024   21163502.5864         44.2504
        36.5004
  -9552784.98846  -7410778.40647  21902143.2974   21902142.8014         41.7504
        42.5004
 -15668591.04747 -11777297.50846  20569539.3914   20569534.8484         46.5004
        38.7504
 -19852363.59848 -14746623.10248  20938445.3984   20938443.8014         48.5004
        52.2504
 -19419445.85247 -13768297.90646  20604443.5234   20604439.0124         46.5004
        37.5004
 21  2  1  1  0  0.0000000  0  7G23G15G24G25G12G10G20
 -20459870.39547 -15188505.28146  20523546.2034   20523542.7934         45.7504
        39.0004
  -9700186.08247  -7497079.14845  22352110.2974   22352107.6024         42.5004
        31.2504
 -15561778.85547 -11944753.17246  21176162.8524   21176161.4184         44.0004
        36.7504
  -9653946.78546  -7489605.74247  21882892.8134   21882892.4024         41.7504
        43.0004
 -15701523.93747 -11802959.49246  20563272.3054   20563268.3484         47.5004
        39.0004
 -19885572.67648 -14772500.32048  20932125.8834   20932124.1174         49.5004
        52.0004
 -19367752.02347 -13728017.00046  20614280.0084   20614275.9884         46.5004
        38.0004
 21  2  1  1  0 30.0000000  0  7G23G15G24G25G12G10G20
 -20418545.93747 -15156304.41846  20531410.0314   20531406.7664         45.7504
        38.7504
  -9625349.59447  -7438765.03545  22366351.3984   22366347.9344         43.0004
        31.0004
 -15495073.61747 -11892775.07046  21188856.2504   21188854.6024         44.2504
        36.7504
  -9754798.77047  -7568191.68447  21863701.3834   21863700.9064         42.2504
        42.7504
 -15733838.10547 -11828139.33246  20557122.8754   20557118.8634         47.0004
        39.2504
 -19918211.00048 -14797932.78548  20925914.6174   20925912.3134         49.0004
        51.7504
 -19315527.63747 -13687322.68746  20624218.0704   20624213.5594         46.7504
        37.2504
 21  2  1  1  1  0.0000000  0  7G23G15G24G25G12G10G20
 -20376663.51247 -15123668.77346  20539379.8524   20539376.9884         44.5004
        39.0004
  -9550286.90646  -7380274.63344  22380635.2974   22380631.8094         41.0004
        29.5004
 -15428185.92647 -11840654.80145  21201584.9924   21201582.7234         44.7504
        35.7504
  -9855338.11347  -7646534.01247  21844569.4144   21844568.4654         42.5004
        42.0004
 -15765532.17647 -11852835.99646  20551091.4144   20551087.2274         46.5004
        38.5004
 -19950277.03148 -14822919.31648  20919812.8594   20919810.9264         48.5004
        51.7504
 -19262774.62547 -13646216.46146  20634256.8594   20634252.8634         46.5004
        38.0004
 21  2  1  1  1 30.0000000  0  7G23G15G24G25G12G10G20
 -20334224.46547 -15090599.40246  20547455.4614   20547452.7894         45.2504
        39.5004
  -9474998.25846  -7321608.17645  22394961.3674   22394958.8324         41.2504
        31.0004
 -15361117.69947 -11788393.85945  21214347.4304   21214345.2934         44.2504
        35.7504
  -9955561.98047  -7724630.51647  21825497.1254   21825496.1454         42.2504
        42.0004
 -15796604.92647 -11877048.51646  20545178.9534   20545174.2814         47.2504
        39.0004
 -19981769.32848 -14847458.77048  20913820.1024   20913818.5164         48.5004
        51.7504
 -19209494.78547 -13604699.72346  20644395.3674   20644391.5354         46.7504
        38.0004
 21  2  1  1  2  0.0000000  0  7G23G15G24G25G12G10G20
 -20291230.16847 -15057097.36746  20555637.1254   20555634.3404         45.7504
        38.7504
  -9399484.64547  -7262766.44545  22409332.1174   22409328.3984         42.2504
        31.7504
 -15293870.24247 -11735993.25846  21227143.9064   21227142.6254         43.7504
        36.0004
 -10055467.37147  -7802478.85247  21806485.4694   21806485.0434         42.5004
        42.5004
 -15827054.96147 -11900775.79746  20539384.5634   20539380.1414         47.7504
        38.7504
 -20012686.48048 -14871550.07848  20907936.9774   20907934.8094         49.0004
        52.0004
 -19155690.23847 -13562774.10946  20654634.2034   20654630.3444         46.0004
        37.7504
 21  2  1  1  2 30.0000000  0  7G23G15G24G25G12G10G20
 -20247681.94547 -15023163.69946  20563924.0784   20563921.2464         45.5004
        40.0004
  -9323746.34047  -7203749.60245  22423744.6094   22423741.0164         42.5004
        31.0004
 -15226445.01647 -11683454.11745  21239974.8674   21239972.8794         43.7504
        35.5004
 -10155051.38347  -7880076.77047  21787535.7194   21787534.9024         43.5004
        43.7504
 -15856881.31247 -11924017.09446  20533708.6564   20533703.9104         47.2504
        38.5004
 -20043027.07848 -14895192.09848  20902163.1174   20902161.4694         48.5004
        52.0004
 -19101362.85547 -13520441.10946  20664972.3524   20664968.2814         46.0004
        37.2504
 21  2  1  1  3  0.0000000  0  7G23G15G24G25G12G10G20
 -20203581.21547 -14988799.50046  20572316.6174   20572313.1484         45.5004
        39.0004
  -9247783.76247  -7144558.00445  22438199.6094   22438196.5204         42.0004
        32.0004
 -15158843.55147 -11630777.66445  21252839.3674   21252837.0474         43.7504
        35.7504
 -10254311.12147  -7957422.01647  21768646.9844   21768646.1684         42.7504
        42.7504
 -15886082.90647 -11946771.56646  20528151.4304   20528146.8524         47.2504
        38.2504
 -20072789.74248 -14918383.80148  20896499.8134   20896497.7074         49.0004
        52.0004
 -19046514.74247 -13477702.31246  20675409.7274   20675405.7934         46.2504
        37.2504
 21  2  1  1  3 30.0000000  0  7G23G15G24G25G12G10G20
 -20158929.37947 -14954005.87146  20580813.4064   20580810.3134         47.0004
        39.0004
  -9171597.68747  -7085192.27345  22452697.7114   22452694.2624         42.2504
        30.7504
 -15091067.92647 -11577965.50845  21265736.3364   21265734.0594         43.7504
        35.7504
 -10353243.73847  -8034512.35547  21749820.7194   21749820.0124         42.5004
        42.5004
 -15914658.61747 -11969038.34046  20522714.0004   20522709.2114         47.5004
        38.7504
 -20101973.09448 -14941124.06248  20890946.1804   20890944.4184         48.7504
        52.0004
 -18991148.01247 -13434559.43046  20685945.6724   20685941.4304         46.5004
        38.0004
 21  2  1  1  4  0.0000000  0  7G23G15G24G25G12G10G20
 -20113727.86747 -14918783.93446  20589414.8594   20589411.5984         46.5004
        38.7504
  -9095188.38347  -7025652.60245  22467238.4614   22467234.5784         42.5004
        30.7504
 -15023118.80947 -11525018.14546  21278666.6644   21278664.7114         44.0004
        36.0004
 -10451846.35247  -8111345.52347  21731057.1564   21731056.8404         43.0004
        43.0004
 -15942607.24647 -11990816.47746  20517395.1254   20517391.1724         46.0004
        38.7504
 -20130575.78948 -14963411.89848  20885503.3284   20885501.6054         48.5004
        52.0004
 -18935264.55547 -13391013.88346  20696579.9614   20696575.8054         45.7504
        38.0004
 21  2  1  1  4 30.0000000  0  7G23G15G24G25G12G10G20
 -20067978.16047 -14883134.82446  20598120.7504   20598117.4384         45.2504
        39.0004
  -9018556.49647  -6965939.46545  22481820.7504   22481817.5594         43.0004
        31.7504
 -14954998.63747 -11471937.51245  21291629.3834   21291627.5004         44.2504
        35.2504
 -10550116.07847  -8187919.31247  21712357.5474   21712356.6024         43.5004
        43.5004
 -15969927.63747 -12012105.08646  20512196.7664   20512192.1954         47.5004
        38.2504
 -20158596.52748 -14985246.24248  20880170.8284   20880169.1524         49.5004
        51.7504
 -18878866.39547 -13347067.29746  20707312.0554   20707308.0824         46.0004
        37.5004
 21  2  1  1  5  0.0000000  0  7G23G15G24G25G12G10G20
 -20021681.75447 -14847059.71946  20606930.8594   20606927.7544         45.5004
        39.0004
  -8941702.23047  -6906053.07445  22496444.9144   22496441.8834         42.0004
        30.7504
 -14886707.97747 -11418724.02045  21304624.5394   21304622.8364         43.2504
        35.5004
 -10648050.03547  -8264231.47347  21693721.4304   21693720.7814         43.2504
        43.7504
 -15996618.82847 -12032903.41046  20507117.1954   20507112.7894         46.0004
        38.7504
 -20186034.01248 -15006626.11748  20874949.9924   20874948.0004         48.0004
        51.7504
 -18821955.57847 -13302721.21546  20718141.8674   20718137.9144         45.7504
        37.5004
 21  2  1  1  5 30.0000000  0  7G23G15G24G25G12G10G20
 -19974840.13747 -14810559.77346  20615844.3674   20615841.5164         45.7504
        38.7504
  -8864626.40247  -6845994.03944  22511112.0634   22511108.8594         42.0004
        29.7504
 -14818249.50847 -11365379.75845  21317651.9454   21317650.1844         43.5004
        35.5004
 -10745645.33647  -8340279.72747  21675149.2194   21675149.2974         43.2504
        43.7504
 -16022679.86347 -12053210.70346  20502158.2034   20502153.8874         45.7504
        39.0004
 -20212886.94547 -15027550.49648  20869840.1644   20869838.3484         47.7504
        52.0004
 -18764534.42647 -13257977.46946  20729069.1724   20729064.3834         46.2504
        37.7504
 21  2  1  1  6  0.0000000  0  7G23G15G24G25G12G10G20
 -19927454.80147 -14773636.14846  20624861.5944   20624858.4144         45.7504
        38.7504
  -8787329.44547  -6785762.70345  22525821.5704   22525818.5274         42.5004
        31.2504
 -14749624.04347 -11311905.38345  21330710.7584   21330709.2464         43.5004
        35.5004
 -10842899.15647  -8416061.90647  21656642.8054   21656641.9184         43.7504
        44.0004
 -16048109.69547 -12073026.15246  20497318.8444   20497314.5394         45.5004
        39.0004
 -20239154.10948 -15048018.43448  20864841.3524   20864839.9734         48.0004
        52.2504
 -18706604.78947 -13212837.49646  20740092.3594   20740088.5084         45.2504
        37.7504
 21  2  1  1  6 30.0000000  0  7G23G15G24G25G12G10G20
 -19879527.32047 -14736290.07446  20633981.7344   20633978.8834         46.2504
        39.0004
  -8709812.21947  -6725359.67244  22540573.0864   22540568.8204         42.2504
        29.7504
 -14680833.68747 -11258302.52746  21343801.6484   21343799.5824         43.7504
        36.2504
 -10939808.62147  -8491575.77747  21638201.3834   21638200.7734         44.2504
        44.7504
 -16072907.43047 -12092349.05146  20492599.8134   20492595.5234         46.7504
        38.5004
 -20264834.23848 -15068028.93748  20859954.5234   20859952.9414         49.5004
        52.0004
 -18648168.98047 -13167303.13346  20751212.4224   20751208.6414         46.0004
        38.5004
 21  2  1  1  7  0.0000000  0  7G23G15G24G25G12G10G20
 -19831059.24247 -14698522.75046  20643205.0864   20643202.1254         46.2504
        39.0004
  -8632074.95346  -6664785.19945  22555365.6564   22555362.3404         41.5004
        30.5004
 -14611879.40247 -11204571.92245  21356922.6024   21356921.4734         43.0004
        35.5004
 -11036370.95347  -8566819.12147  21619826.1564   21619825.8484         44.5004
        45.0004
 -16097071.92247 -12111178.52746  20488001.8054   20487997.6454         45.7504
        38.7504
 -20289926.19947 -15087581.12548  20855179.8754   20855177.8554         47.7504
        52.0004
 -18589229.07447 -13121375.93746  20762428.6954   20762424.2664         46.2504
        37.5004
 21  2  1  1  7 30.0000000  0  7G23G15G24G25G12G10G20
 -19782052.17647 -14660335.45346  20652530.8444   20652527.5904         46.5004
        38.7504
  -8554118.43046  -6604039.89145  22570200.4384   22570197.8834         41.7504
        30.0004
 -14542762.87147 -11150714.89545  21370075.1884   21370073.9614         42.5004
        35.5004
 -11132583.27047  -8641789.73047  21601517.6954   21601516.8594         44.0004
        44.5004
 -16120602.65247 -12129514.14846  20483523.5554   20483519.8404         47.0004
        38.2504
 -20314428.74248 -15106674.01248  20850517.4534   20850515.8244         48.5004
        52.0004
 -18529787.09847 -13075057.52346  20773740.0394   20773735.7934         46.2504
        37.2504
 21  2  1  1  8  0.0000000  0  7G23G15G24G25G12G10G20
 -19732507.78547 -14621729.44146  20661959.0164   20661955.1174         46.5004
        38.7504
  -8475942.89846  -6543123.94944  22585076.6804   22585074.0314         41.5004
        29.7504
 -14473485.53147 -11096732.56645  21383258.0394   21383256.4224         42.2504
        34.2504
 -11228442.72347  -8716485.37947  21583275.7894   21583275.2584         43.2504
        44.2504
 -16143498.34847 -12147354.95346  20479166.7424   20479162.6564         45.5004
        39.0004
 -20338340.75848 -15125306.77048  20845967.0394   20845965.5784         48.2504
        52.2504
 -18469845.45347 -13028349.77046  20785146.3364   20785142.6094         45.5004
        37.2504
 21  2  1  1  8 30.0000000  0  7G23G15G24G25G12G10G20
 -19682427.60547 -14582705.94546  20671489.2424   20671485.2624         46.5004
        39.0004
  -8397548.91046  -6482037.75845  22599994.5234   22599991.1804         40.5004
        30.5004
 -14404048.73447 -11042625.97745  21396471.4144   21396469.9264         42.2504
        35.5004
 -11323946.50847  -8790903.90247  21565102.1024   21565101.5594         43.7504
        44.7504
 -16165758.27047 -12164700.34446  20474930.8524   20474926.5354         47.2504
        39.0004
 -20361661.08648 -15143478.47348  20841528.9924   20841527.5084         49.0004
        52.0004
 -18409406.27747 -12981254.32046  20796647.2584   20796643.7584         44.7504
        36.7504
 21  2  1  1  9  0.0000000  0  7G23G15G24G25G12G10G20
 -19631813.34447 -14543266.28946  20681120.4064   20681117.1684         46.2504
        38.7504
  -8318937.12946  -6420781.84844  22614953.5944   22614950.0944         41.0004
        29.2504
 -14334454.13347 -10988396.41845  21409714.7034   21409713.0124         43.0004
        34.7504
 -11419091.84447  -8865043.11347  21546996.6644   21546995.9654         42.5004
        43.7504
 -16187381.76647 -12181549.82046  20470816.8054   20470812.0514         47.7504
        39.0004
 -20384388.63347 -15161188.25048  20837204.3364   20837202.5274         47.7504
        52.2504
 -18348471.81647 -12933772.92246  20808242.7584   20808238.6954         45.7504
        37.5004
 21  2  1  1  9 30.0000000  0  7G23G15G24G25G12G10G20
 -19580666.66047 -14503411.75446  20690853.3444   20690849.9884         46.0004
        38.2504
  -8240108.15247  -6359356.69944  22629954.9924   22629950.8984         42.0004
        29.7504
 -14264702.60947 -10934044.59445  21422988.6174   21422986.2384         43.0004
        34.0004
 -11513875.85547  -8938900.77047  21528959.9774   21528958.8134         43.7504
        44.0004
 -16208368.14548 -12197902.84046  20466822.6804   20466818.0124         48.0004
        39.2504
 -20406522.30147 -15178435.27348  20832992.6174   20832991.2734         47.7504
        52.5004
 -18287044.33647 -12885907.36346  20819931.9534   20819928.4184         45.7504
        37.0004
 21  2  1  1 10  0.0000000  0  7G23G15G24G25G12G10G20
 -19528989.27747 -14463143.66046  20700687.0314   20700683.9064         46.2504
        38.7504
  -8161062.60946  -6297762.79345  22644996.6644   22644993.4654         41.7504
        31.2504
 -14194796.15247 -10879572.03145  21436291.1724   21436289.5864         42.5004
        34.7504
 -11608295.84847  -9012474.76647  21510992.2814   21510990.9654         42.2504
        43.5004
 -16228716.67247 -12213758.83246  20462950.1094   20462945.9414         47.5004
        39.0004
 -20428061.04747 -15195218.71948  20828893.7814   20828892.2234         47.7504
        52.2504
 -18225125.64547 -12837659.05146  20831714.8054   20831711.3484         45.2504
        37.2504
 21  2  1  1 10 30.0000000  0  7G23G15G24G25G12G10G20
 -19476782.87547 -14422463.37946  20710621.8834   20710619.0044         46.5004
        38.7504
  -8081800.93046  -6236000.49245  22660079.0474   22660076.3914         41.7504
        30.0004
 -14124736.87547 -10824980.40645  21449622.7504   21449621.2114         42.5004
        34.7504
 -11702348.95347  -9085762.87947  21493094.1564   21493093.0124         43.5004
        44.0004
 -16248426.34847 -12229117.00046  20459199.4384   20459195.6214         47.2504
        39.0004
 -20449003.84448 -15211537.78548  20824908.5944   20824907.0554         48.2504
        52.2504
 -18162718.67647 -12789030.26646  20843590.6564   20843586.3554         45.7504
        36.0004
 21  2  1  1 11  0.0000000  0  7G23G15G24G25G12G10G20
 -19424049.20747 -14381372.22346  20720656.8914   20720653.5744         47.0004
        38.5004
  -8002323.68746  -6174070.22345  22675203.8054   22675200.0084         41.0004
        30.0004
 -14054525.44947 -10770270.21545  21462984.0784   21462981.8794         43.2504
        34.5004
 -11796032.42247  -9158762.94947  21475266.9454   21475266.0354         43.7504
        45.2504
 -16267496.54347 -12243976.89546  20455571.1804   20455566.4774         46.0004
        38.7504
 -20469349.68747 -15227391.69548  20821036.6884   20821035.3554         47.5004
        52.5004
 -18099825.55947 -12740022.64146  20855558.9534   20855554.1054         45.5004
        36.5004
 21  2  1  1 11 30.0000000  0  7G23G15G24G25G12G10G20
 -19370790.03147 -14339871.56646  20730791.5164   20730788.4534         46.2504
        37.5004
  -7922631.63746  -6111972.55544  22690368.2114   22690365.2504         40.5004
        28.7504
 -13984163.19947 -10715442.48445  21476373.0004   21476371.4384         43.2504
        34.2504
 -11889343.48047  -9231472.84047  21457510.2894   21457509.6604         44.0004
        45.5004
 -16285926.60947 -12258337.98046  20452064.0634   20452059.6954         45.7504
        39.0004
 -20489097.56648 -15242779.66448  20817278.9144   20817276.6804         49.0004
        52.2504
 -18036448.29347 -12690637.77746  20867619.2034   20867615.0394         46.2504
        37.0004
 21  2  1  1 12  0.0000000  0  7G23G15G24G25G12G10G20
 -19317007.14847 -14297962.84446  20741026.0314   20741023.2344         47.0004
        38.2504
  -7842725.37146  -6049707.96544  22705573.4774   22705571.4454         40.0004
        28.5004
 -13913652.05147 -10660498.74645  21489791.0234   21489789.3444         43.0004
        34.5004
 -11982279.35247  -9303890.39547  21439825.8594   21439824.0204         43.7504
        45.2504
 -16303715.80147 -12272199.66046  20448678.6724   20448674.3874         46.0004
        39.5004
 -20508246.53148 -15257700.94948  20813634.9924   20813633.1564         48.7504
        52.2504
 -17972589.49647 -12640877.68746  20879770.5784   20879766.5124         46.0004
        36.5004
 21  2  1  1 12 30.0000000  0  7G23G15G24G25G12G10G20
 -19262702.30547 -14255647.39846  20751360.0554   20751357.1484         46.2504
        38.5004
  -7762605.38346  -5987276.85944  22720820.2034   22720817.2664         40.5004
        27.5004
 -13842992.86747 -10605439.65245  21503236.7034   21503235.6414         42.2504
        35.7504
 -12074837.35247  -9376013.47747  21422212.5234   21422211.3134         43.0004
        45.2504
 -16320863.64147 -12285561.59446  20445415.3754   20445411.3754         45.5004
        39.0004
 -20526795.64848 -15272154.82848  20810105.3674   20810103.7154         48.0004
        52.7504
 -17908251.34447 -12590744.09846  20892013.8364   20892009.5664         45.2504
        36.0004
 21  2  1  1 13  0.0000000  0  7G23G15G24G25G12G10G20
 -19207877.35547 -14212926.66846  20761792.2194   20761789.8364         45.5004
        37.7504
  -7682272.14146  -5924679.55144  22736107.3284   22736103.6644         40.5004
        27.0004
 -13772187.62547 -10550266.75045  21516711.0234   21516709.3834         42.5004
        34.0004
 -12167014.64147  -9447839.92247  21404671.6884   21404670.9734         44.0004
        45.7504
 -16337369.66447 -12298423.42646  20442274.5554   20442270.2274         45.5004
        39.2504
 -20544744.03948 -15286140.58648  20806689.6644   20806688.3874         49.0004
        52.5004
 -17843436.47347 -12540239.01246  20904347.8594   20904344.1054         45.7504
        36.5004
 21  2  1  1 13 30.0000000  0  7G23G15G24G25G12G10G20
 -19152534.14547 -14169802.09846  20772324.5944   20772321.5664         45.5004
        38.5004
  -7601726.07847  -5861916.39144  22751435.0164   22751431.5314         42.0004
        29.5004
 -13701237.33646 -10494980.81645  21530211.9454   21530210.3754         41.7504
        34.0004
 -12258808.50847  -9519367.59047  21387203.5704   21387202.9144         43.7504
        45.7504
 -16353233.19947 -12310784.61346  20439255.5474   20439251.5864         47.0004
        39.0004
 -20562090.77348 -15299657.53948  20803388.6724   20803387.0864         48.7504
        52.2504
 -17778147.06247 -12489364.15246  20916772.3204   20916768.3754         46.0004
        36.5004
 21  2  1  1 14  0.0000000  0  7G23G15G24G25G12G10G20
 -19096674.50447 -14126275.12546  20782953.7194   20782951.6524         45.5004
        38.2504
  -7520968.48046  -5798988.44944  22766802.1174   22766799.6214         41.7504
        28.5004
 -13630143.62546 -10439583.14145  21543740.4694   21543739.3094         41.5004
        33.7504
 -12350216.28147  -9590594.41847  21369809.0784   21369808.3054         43.0004
        44.7504
 -16368453.52747 -12322644.59046  20436359.5234   20436354.6174         45.5004
        39.0004
 -20578835.00448 -15312704.98848  20800202.8364   20800200.4574         48.2504
        52.2504
 -17712385.37547 -12438121.31246  20929285.8834   20929281.9694         45.7504
        36.5004
 21  2  1  1 14 30.0000000  0  7G23G15G24G25G12G10G20
 -19040300.35547 -14082347.22346  20793681.6414   20793678.5784         46.0004
        38.5004
  -7439999.76646  -5735895.99244  22782210.1954   22782206.9304         41.5004
        28.0004
 -13558907.60947 -10384074.55545  21557296.9454   21557295.2814         42.0004
        34.7504
 -12441235.21547  -9661518.23047  21352488.6644   21352488.3364         43.5004
        45.0004
 -16383030.40247 -12334003.18746  20433585.3284   20433580.9774         47.5004
        39.2504
 -20594975.90248 -15325282.32848  20797130.8134   20797129.3954         48.0004
        52.5004
 -17646154.06247 -12386512.50845  20941889.2584   20941885.4384         45.2504
        35.5004
 21  2  1  1 15  0.0000000  0  7G23G15G24G25G12G10G20
 -18983413.53547 -14038019.84846  20804506.6644   20804503.9224         45.7504
        37.5004
  -7358820.41846  -5672639.41044  22797658.3134   22797654.1914         41.7504
        29.0004
 -13487531.07047 -10328456.48445  21570878.9774   21570877.8014         42.5004
        34.5004
 -12531862.60547  -9732136.95747  21335243.3594   21335242.9734         43.0004
        45.5004
 -16396963.41847 -12344860.07046  20430934.1644   20430929.7274         46.7504
        39.0004
 -20610512.67648 -15337388.92248  20794174.4924   20794172.5744         48.7504
        52.0004
 -17579455.39547 -12334539.53946  20954581.8444   20954577.9144         45.5004
        36.0004
 21  2  1  1 15 30.0000000  0  7G23G15G24G25G12G10G20
 -18926016.02747 -13993294.54746  20815428.9774   20815426.3914         45.7504
        38.0004
  -7277430.89846  -5609219.03544  22813146.0314   22813142.9734         40.5004
        28.5004
 -13416015.39847 -10272730.00845  21584488.0394   21584486.5164         42.0004
        34.0004
 -12622095.68447  -9802448.43047  21318073.0314   21318071.7504         43.5004
        46.2504
 -16410251.94947 -12355214.77046  20428405.3284   20428401.4574         47.2504
        39.0004
 -20625444.52048 -15349024.12148  20791332.7734   20791331.4104         49.0004
        52.5004
 -17512291.91847 -12282204.38746  20967363.1254   20967358.9964         44.5004
        36.0004
 21  2  1  1 16  0.0000000  0  7G23G15G24G25G12G10G20
 -18868109.75847 -13948172.79746  20826448.6884   20826445.3324         45.5004
        37.7504
  -7195832.14146  -5545635.64144  22828674.3674   22828670.8404         41.5004
        29.0004
 -13344361.98047 -10216896.18745  21598123.7034   21598122.7074         42.5004
        34.2504
 -12711931.86347  -9872450.64147  21300977.5234   21300976.3444         43.0004
        45.7504
 -16422895.59847 -12365066.95346  20425999.4694   20425994.7274         45.7504
        40.0004
 -20639770.67648 -15360187.38348  20788606.9454   20788605.2854         48.2504
        52.2504
 -17444665.89147 -12229508.79346  20980231.4924   20980227.9224         45.0004
        36.2504
 21  2  1  1 16 30.0000000  0  7G23G15G24G25G12G10G20
 -18809696.65247 -13902656.09446  20837564.0634   20837560.5274         45.5004
        37.5004
  -7114024.54746  -5481889.50044  22844242.3054   22844238.1564         41.5004
        29.5004
 -13272572.27747 -10160956.16445  21611784.0234   21611783.5434         42.2504
        33.5004
 -12801368.42247  -9942141.44147  21283957.8594   21283957.0234         42.7504
        46.0004
 -16434894.16847 -12374416.48846  20423715.9534   20423712.1094         45.7504
        39.5004
 -20653490.42248 -15370878.11348  20785996.2504   20785994.0664         48.2504
        52.7504
 -17376579.94947 -12176454.83245  20993187.4534   20993183.8874         44.2504
        35.5004
 21  2  1  1 17  0.0000000  0  7G23G15G24G25G12G10G20
 -18750778.66447 -13856745.99646  20848775.7504   20848772.6094         45.0004
        37.5004
  -7032008.94146  -5417981.26644  22859848.5164   22859845.4804         40.5004
        29.5004
 -13200646.93446 -10104910.47345  21625471.3594   21625470.0084         41.7504
        33.5004
 -12890402.71947 -10011518.80147  21267015.1024   21267013.9694         44.0004
        46.0004
 -16446246.90647 -12383262.76246  20421555.7504   20421551.2194         45.7504
        39.0004
 -20666603.07048 -15381095.76648  20783500.6884   20783499.4104         48.0004
        52.7504
 -17308036.53147 -12123044.39545  21006230.6094   21006227.2034         44.5004
        35.5004
 21  2  1  1 17 30.0000000  0  7G23G15G24G25G12G10G20
 -18691357.82047 -13810444.06646  20860083.7584   20860079.8674         46.0004
        38.0004
  -6949786.00046  -5353911.46544  22875495.0394   22875491.8094         39.5004
        27.5004
 -13128587.87946 -10048760.57845  21639183.4224   21639182.0864         41.0004
        33.7504
 -12979032.07447 -10080580.64147  21250149.4774   21250148.6094         44.7504
        45.7504
 -16456953.97747 -12391605.93746  20419518.2584   20419513.8444         45.7504
        39.2504
 -20679107.90247 -15390839.79348  20781121.2274   20781119.4494         47.5004
        52.5004
 -17239038.37547 -12069279.61745  21019361.3204   21019356.9844         45.0004
        35.7504
 21  2  1  1 18  0.0000000  0  7G23G15G24G25G12G10G20
 -18631436.14147 -13763751.86746  20871486.1174   20871482.7464         45.5004
        37.2504
  -6867356.25446  -5289680.53544  22891181.0164   22891177.6604         39.5004
        28.5004
 -13056395.92646  -9992507.11745  21652921.1564   21652919.7774         41.2504
        33.2504
 -13067253.84447 -10149324.86347  21233361.7034   21233360.5514         44.2504
        46.0004
 -16467015.04347 -12399445.72346  20417603.4924   20417599.1954         46.2504
        39.2504
 -20691004.31248 -15400109.73848  20778857.3834   20778856.2304         48.0004
        52.7504
 -17169588.04747 -12015162.50445  21032577.4304   21032573.2664         45.2504
        35.5004
 21  2  1  1 18 30.0000000  0  7G23G15G24G25G12G10G20
 -18571015.67647 -13716671.00046  20882983.8984   20882979.8324         46.0004
        37.0004
  -6784720.50046  -5225289.07844  22906906.0474   22906902.1134         40.0004
        27.7504
 -12984072.60547  -9936151.29345  21666684.6484   21666683.1914         43.7504
        34.0004
 -13155065.38347 -10217749.41447  21216651.3754   21216650.3404         44.0004
        45.5004
 -16476429.62547 -12406781.75046  20415812.1334   20415807.7504         47.2504
        40.2504
 -20702291.63748 -15408905.07048  20776709.5864   20776708.2114         49.0004
        52.5004
 -17099687.48047 -11960694.56245  21045878.7274   21045874.6764         45.0004
        34.7504
 21  2  1  1 19  0.0000000  0  7G23G15G24G25G12G10G20
 -18510098.38747 -13669202.98846  20894575.7034   20894572.5204         44.7504
        37.0004
  -6701879.33246  -5160737.55944  22922671.1724   22922667.3284         40.0004
        27.5004
 -12911619.61347  -9879694.42645  21680471.6484   21680470.4064         43.0004
        33.0004
 -13242464.10947 -10285852.29747  21200020.0314   21200018.8984         44.5004
        46.0004
 -16485197.51647 -12413613.86346  20414143.7974   20414139.5864         46.0004
        39.5004
 -20712969.32448 -15417225.36348  20774677.8984   20774675.7854         48.2504
        52.5004
 -17029339.15247 -11905877.69145  21059265.4534   21059262.2074         45.0004
        34.7504
 21  2  1  1 19 30.0000000  0  7G23G15G24G25G12G10G20
 -18448686.43747 -13621349.53946  20906262.3914   20906259.1804         46.0004
        37.2504
  -6618833.43446  -5096026.51644  22938473.2114   22938469.7854         39.0004
        26.0004
 -12839037.56246  -9823137.01245  21694283.4454   21694282.5314         41.5004
        34.0004
 -13329447.35247 -10353631.44147  21183468.0634   21183466.8164         44.0004
        46.5004
 -16493318.60947 -12419941.99246  20412597.9774   20412593.3874         47.7504
        39.0004
 -20723036.75048 -15425070.11348  20772761.8444   20772760.4454         49.2504
        52.5004
 -16958546.15647 -11850714.34445  21072737.3524   21072733.3914         45.5004
        35.5004
 21  2  1  1 20  0.0000000  0  7G23G15G24G25G12G10G20
 -18386781.85247 -13573112.22746  20918042.6024   20918039.3554         45.5004
        37.5004
  -6535583.44546  -5031156.43444  22954315.8524   22954311.9454         40.5004
        26.7504
 -12766328.67247  -9766480.73845  21708119.2504   21708117.9844         42.2504
        33.0004
 -13416012.60547 -10421084.87147  21166994.7664   21166993.8164         43.7504
        46.2504
 -16500792.73847 -12425765.97746  20411176.0784   20411171.8164         47.5004
        39.7504
 -20732493.38748 -15432438.94148  20770962.5314   20770960.2584         48.5004
        52.7504
 -16887310.99647 -11795206.45345  21086293.2114   21086289.0984         45.7504
        35.2504
 21  2  1  1 20 30.0000000  0  7G23G15G24G25G12G10G20
 -18324386.73847 -13524492.68446  20929915.6804   20929912.5594         45.5004
        37.2504
  -6452130.03546  -4966127.82844  22970196.0784   22970192.3014         39.2504
        25.7504
 -12693493.62947  -9709726.18045  21721979.7974   21721977.9964         42.0004
        33.2504
 -13502157.19547 -10488210.50047  21150602.3364   21150601.3444         44.7504
        46.7504
 -16507619.10547 -12431085.23046  20409877.1254   20409872.9024         46.0004
        39.5004
 -20741338.84047 -15439331.51648  20769279.1414   20769277.7704         47.5004
        52.5004
 -16815636.24647 -11739356.02345  21099931.8914   21099927.9654         45.0004
        35.0004
 21  2  1  1 21  0.0000000  0  7G23G15G24G25G12G10G20
 -18261503.25047 -13475492.57046  20941881.8674   20941878.7074         44.7504
        36.7504
  -6368473.91046  -4900941.30144  22986114.7034   22986111.0394         39.7504
        25.5004
 -12620534.11347  -9652874.61745  21735863.3754   21735861.2814         42.2504
        33.0004
 -13587878.53947 -10555006.34447  21134289.7664   21134289.3284         44.7504
        47.0004
 -16513798.90247 -12435900.64846  20408700.9144   20408696.9494         47.7504
        39.2504
 -20749572.33648 -15445747.24648  20767712.4144   20767711.1214         49.2504
        52.5004
 -16743524.37147 -11683164.97745  21113654.5864   21113650.7344         43.5004
        35.0004
 21  2  1  1 21 30.0000000  0  7G23G15G24G25G12G10G20
 -18198133.51647 -13426113.59446  20953940.6884   20953937.8054         45.5004
        36.7504
  -6284615.79146  -4835597.35944  23002073.3984   23002069.1564         39.7504
        28.0004
 -12547451.03947  -9595926.78945  21749770.7034   21749769.1954         42.2504
        33.0004
 -13673174.17247 -10621470.44947  21118058.5004   21118057.7584         45.7504
        46.5004
 -16519331.37147 -12440211.66046  20407648.2894   20407644.2194         47.5004
        39.0004
 -20757193.58648 -15451685.88748  20766262.2194   20766260.1174         49.7504
        52.5004
 -16670977.94947 -11626635.32045  21127459.7034   21127455.1134         44.2504
        35.2504
 21  2  1  1 22  0.0000000  0  7G23G15G24G25G12G10G20
 -18134279.68047 -13376357.37546  20966091.9844   20966088.9024         45.0004
        37.0004
  -6200556.19546  -4770096.42644  23018069.1884   23018065.6214         39.7504
        26.7504
 -12474245.62946  -9538883.63345  21763700.7424   21763699.7664         41.2504
        33.5004
 -13758041.44547 -10687600.78147  21101909.0704   21101907.7584         45.2504
        47.0004
 -16524216.54347 -12444018.28146  20406718.6334   20406714.3834         46.5004
        39.2504
 -20764202.12548 -15457147.09048  20764928.3914   20764926.9774         49.0004
        52.5004
 -16597999.75847 -11569769.21145  21141346.8674   21141343.1024         44.5004
        34.5004
 21  2  1  1 22 30.0000000  0  7G23G15G24G25G12G10G20
 -18069943.89547 -13326225.60946  20978334.5394   20978331.3834         45.2504
        36.7504
  -6116296.29746  -4704439.40644  23034103.4454   23034099.7734         40.5004
        28.5004
 -12400919.10246  -9481746.09845  21777655.2664   21777653.4804         41.0004
        33.7504
 -13842477.83247 -10753395.36347  21085841.5474   21085840.4184         45.5004
        47.5004
 -16528454.13347 -12447320.28946  20405912.0394   20405907.8094         47.5004
        39.2504
 -20770597.51648 -15462130.54348  20763711.3364   20763709.5634         49.5004
        52.2504
 -16524592.24247 -11512568.59045  21155316.0004   21155312.1604         44.0004
        34.5004
 21  2  1  1 23  0.0000000  0  7G23G15G24G25G12G10G20
 -18005128.38347 -13275720.03946  20990668.7424   20990665.7034         45.2504
        37.2504
  -6031836.59046  -4638626.66844  23050176.0394   23050171.8404         40.0004
        27.0004
 -12327473.32046  -9424515.62945  21791630.4534   21791629.9344         41.0004
        32.0004
 -13926480.81647 -10818852.22347  21069855.7194   21069854.7894         44.7504
        47.0004
 -16532044.52047 -12450117.98846  20405229.0164   20405224.5704         46.0004
        39.2504
 -20776379.41848 -15466635.92648  20762611.1334   20762609.9804         49.2504
        52.5004
 -16450758.22747 -11455035.61745  21169365.8754   21169362.1684         45.0004
        34.0004
 21  2  1  1 23 30.0000000  0  7G23G15G24G25G12G10G20
 -17939835.32847 -13224842.35946  21003093.2894   21003090.7814         45.7504
        37.2504
  -5947177.69146  -4572658.74644  23066285.1884   23066283.1454         38.5004
        27.5004
 -12253909.12946  -9367192.91445  21805629.4774   21805628.2584         41.5004
        32.0004
 -14010047.92247 -10883969.43747  21053953.3364   21053953.1094         44.7504
        46.7504
 -16534987.45747 -12452411.17246  20404669.0004   20404664.7774         47.7504
        39.5004
 -20781547.44548 -15470662.98448  20761627.8444   20761626.3524         49.0004
        52.7504
 -16376500.41847 -11397172.41045  21183496.7664   21183492.8554         44.2504
        33.5004
 21  2  1  1 24  0.0000000  0  7G23G15G24G25G12G10G20
 -17874066.93447 -13173594.27746  21015608.5084   21015605.3714         45.2504
        37.2504
  -5862320.48646  -4506536.28944  23082433.0864   23082430.3484         38.0004
        27.2504
 -12180228.10246  -9309779.13745  21819650.5634   21819648.8714         41.7504
        32.7504
 -14093176.62547 -10948745.01647  21038135.0784   21038134.0234         45.0004
        47.5004
 -16537283.20747 -12454200.05546  20404232.1254   20404227.5314         45.5004
        39.2504
 -20786101.27048 -15474211.43448  20760761.0944   20760759.4614         48.0004
        52.7504
 -16301821.24647 -11338980.86745  21197707.4774   21197703.8164         43.7504
        33.5004
 21  2  1  1 24 30.0000000  0  7G23G15G24G25G12G10G20
 -17807825.48047 -13121977.58646  21028213.9844   21028210.9534         45.2504
        37.0004
  -5777265.64546  -4440259.84044  23098618.6564   23098615.7234         39.0004
        27.5004
 -12106430.92246  -9252274.84045  21833693.8834   21833692.2234         41.2504
        32.0004
 -14175864.39847 -11013177.03947  21022400.1024   21022398.2704         44.0004
        47.5004
 -16538931.47347 -12455484.40646  20403918.0704   20403913.8284         46.7504
        39.5004
 -20790040.59448 -15477281.04748  20760011.6174   20760010.0394         48.5004
        52.7504
 -16226723.53147 -11280463.20745  21211998.9304   21211994.3834         44.0004
        34.2504
 21  2  1  1 25  0.0000000  0  7G23G15G24G25G12G10G20
 -17741113.22747 -13069994.01246  21040908.9694   21040905.9224         45.0004
        37.2504
  -5692013.55546  -4373829.69944  23114841.0164   23114838.7034         39.0004
        27.0004
 -12032519.52746  -9194681.55945  21847758.8674   21847757.6454         41.2504
        31.7504
 -14258108.83647 -11077263.60247  21006749.0474   21006748.1954         44.5004
        47.5004
 -16539932.88747 -12456264.71146  20403727.7114   20403723.2304         46.0004
        39.5004
 -20793365.10248 -15479871.59448  20759378.9224   20759377.4184         48.5004
        52.7504
 -16151210.21947 -11221621.66845  21226368.5704   21226364.8554         45.0004
        35.2504
 21  2  1  1 25 30.0000000  0  7G23G15G24G25G12G10G20
 -17673932.41847 -13017645.35946  21053692.9224   21053690.1764         45.2504
        36.5004
  -5606565.57046  -4307246.86344  23131102.6094   23131097.8834         38.2504
        26.0004
 -11958494.30547  -9136999.58245  21861845.0474   21861843.9184         42.5004
        32.2504
 -14339907.39847 -11141002.71948  20991183.6414   20991182.8094         44.5004
        48.0004
 -16540287.45747 -12456540.99246  20403660.1804   20403656.0864         47.0004
        39.5004
 -20796074.62148 -15481982.91448  20758863.5004   20758862.2704         49.0004
        52.7504
 -16075283.64847 -11162458.14145  21240816.6094   21240812.9494         44.2504
        34.5004
 21  2  1  1 26  0.0000000  0  7G23G15G24G25G12G10G20
 -17606285.33247 -12964933.37546  21066566.1954   21066563.0904         44.2504
        36.7504
  -5520922.02046  -4240511.64544  23147398.9614   23147396.7974         39.0004
        24.5004
 -11884357.10246  -9079230.35545  21875953.3984   21875951.8954         41.5004
        31.7504
 -14421257.68447 -11204392.53947  20975702.8364   20975701.5124         44.5004
        47.5004
 -16539995.11347 -12456313.19146  20403716.2734   20403712.1954         46.2504
        39.2504
 -20798168.85248 -15483614.80548  20758465.2504   20758463.1054         48.7504
        53.0004
 -15998946.52747 -11102974.69945  21255342.8984   21255339.2384         44.5004
        34.2504
 21  2  1  1 26 30.0000000  0  7G23G15G24G25G12G10G20
 -17538174.31247 -12911859.85946  21079526.9614   21079524.3594         45.2504
        37.0004
  -5435083.91446  -4173624.87144  23163734.1024   23163731.0124         38.0004
        24.5004
 -11810108.49246  -9021374.32045  21890082.4694   21890079.9574         41.0004
        31.2504
 -14502157.25047 -11267431.15247  20960308.3754   20960307.1414         44.2504
        47.2504
 -16539056.16047 -12455581.52746  20403894.4454   20403890.1604         47.0004
        39.7504
 -20799647.62948 -15484767.09848  20758183.6804   20758181.5234         49.7504
        52.5004
 -15922201.93047 -11043173.73845  21269947.1254   21269943.4654         43.0004
        33.7504
 21  2  1  1 27  0.0000000  0  7G23G15G24G25G12G10G20
 -17469601.61347 -12858426.61346  21092576.0164   21092573.5084         45.0004
        37.0004
  -5349051.69946  -4106586.85244  23180105.8984   23180102.3324         39.2504
        25.7504
 -11735749.83646  -8963432.52345  21904232.1724   21904230.1254         41.0004
        31.2504
 -14582603.66447 -11330116.64547  20944999.6804   20944998.6334         44.7504
        47.5004
 -16537471.14148 -12454346.44546  20404196.5164   20404191.7854         48.0004
        39.5004
 -20800510.79348 -15485439.71148  20758019.2114   20758017.3634         49.5004
        52.5004
 -15845052.74647 -10983057.50445  21284627.9384   21284625.0594         43.7504
        34.0004
 21  2  1  1 27 30.0000000  0  7G23G15G24G25G12G10G20
 -17400569.61347 -12804635.46146  21105711.9454   21105709.6374         43.7504
        36.5004
  -5262825.96946  -4039397.99244  23196514.3364   23196511.1804         40.2504
        26.2504
 -11661282.62546  -8905406.14145  21918403.0944   21918401.3984         41.5004
        31.0004
 -14662594.54347 -11392447.19947  20929778.0474   20929776.9264         45.2504
        47.7504
 -16535240.18047 -12452608.02346  20404621.0474   20404616.5234         47.0004
        39.5004
 -20800758.21548 -15485632.52048  20757972.3594   20757970.6524         49.2504
        52.7504
 -15767501.22347 -10922627.76645  21299385.5084   21299382.0004         44.0004
        34.0004
 21  2  1  1 28  0.0000000  0  7G23G15G24G25G12G10G20
 -17331080.67247 -12750488.24246  21118936.2424   21118932.6914         45.5004
        36.7504
  -5176408.18046  -3972059.50444  23212958.5554   23212956.5434         40.5004
        26.0004
 -11586707.80146  -8847295.90645  21932593.8754   21932592.6524         41.7504
        31.2504
 -14742127.47747 -11454420.89147  20914643.4614   20914642.2894         45.5004
        47.7504
 -16532363.47747 -12450366.44146  20405168.1254   20405163.8134         45.7504
        39.5004
 -20800389.73048 -15485345.40248  20758042.4224   20758040.6804         48.0004
        52.5004
 -15689550.18747 -10861886.71945  21314219.2894   21314216.2584         44.7504
        35.0004
 21  2  1  1 28 30.0000000  0  7G23G15G24G25G12G10G20
 -17261137.14847 -12695986.80946  21132245.6644   21132242.2034         45.0004
        36.2504
  -5089798.75046  -3904571.67244  23229440.3364   23229436.0704         40.7504
        25.7504
 -11512026.82446  -8789102.94145  21946805.2584   21946803.8834         40.0004
        30.7504
 -14821200.07847 -11516035.88347  20899596.1644   20899594.8444         45.0004
        47.2504
 -16528841.42647 -12447621.98046  20405838.5234   20405834.3594         47.5004
        39.2504
 -20799405.29348 -15484578.30948  20758229.7034   20758227.9384         49.5004
        52.7504
 -15611202.35247 -10800836.47745  21329128.8524   21329124.7854         44.2504
        34.5004
 21  2  1  1 29  0.0000000  0  7G23G15G24G25G12G10G20
 -17190741.39147 -12641132.98446  21145641.2344   21145638.6214         45.7504
        36.2504
  -5002998.56246  -3836935.18044  23245957.1644   23245953.3554         40.7504
        25.5004
 -11437240.88346  -8730828.20745  21961036.9144   21961035.3794         41.2504
        31.5004
 -14899810.01247 -11577290.37147  20884637.2814   20884635.9344         44.5004
        47.5004
 -16524674.48447 -12444375.00846  20406631.4224   20406626.9884         47.2504
        39.0004
 -20797804.84048 -15483331.20348  20758534.2584   20758532.3444         48.7504
        52.5004
 -15532460.76647 -10739479.42645  21344112.6804   21344109.0864         43.7504
        33.7504
 21  2  1  1 29 30.0000000  0  7G23G15G24G25G12G10G20
 -17119895.84847 -12585928.68746  21159122.9774   21159120.5204         45.0004
        37.0004
  -4916008.20346  -3769150.52044  23262511.5634   23262507.3594         39.7504
        25.0004
 -11362351.00446  -8672472.48045  21975287.8674   21975286.0514         41.0004
        30.7504
 -14977954.92247 -11638182.49248  20869766.6954   20869766.0594         45.0004
        48.2504
 -16519862.75447 -12440625.60946  20407546.6254   20407542.4064         47.7504
        39.0004
 -20795588.30948 -15481604.04748  20758956.1884   20758954.6884         48.2504
        52.7504
 -15453328.23047 -10677817.72745  21359171.3444   21359167.2774         43.0004
        32.7504
 21  2  1  1 30  0.0000000  0  7G23G15G24G25G12G10G20
 -17048602.85547 -12530375.73046  21172688.8364   21172686.9844         45.0004
        36.7504
  -4828828.52746  -3701218.41044  23279099.8914   23279098.3594         38.0004
        25.5004
 -11287358.09046  -8614036.43745  21989557.8444   21989557.0514         40.5004
        30.2504
 -15055632.47347 -11698710.44148  20854985.6564   20854984.7194         45.5004
        48.7504
 -16514406.75047 -12436374.16446  20408585.4534   20408580.5864         46.2504
        39.5004
 -20792755.76648 -15479396.86748  20759494.5554   20759493.1994         48.2504
        52.5004
 -15373807.36747 -10615853.44545  21374303.2584   21374299.4494         43.0004
        32.7504
 21  2  1  1 30 30.0000000  0  7G23G15G24G25G12G10G20
 -16976864.90647 -12474476.06245  21186341.0634   21186337.0864         44.0004
        35.5004
  -4741460.20346  -3633139.25444  23295726.7734   23295723.4924         40.0004
        25.2504
 -11212263.44946  -8555521.18445  22003848.3054   22003846.8914         39.5004
        30.2504
 -15132840.31647 -11758872.38748  20840293.0234   20840292.2814         44.0004
        48.2504
 -16508307.06247 -12431621.17246  20409745.9224   20409741.3554         46.0004
        39.5004
 -20789307.18447 -15476709.66448  20760151.2424   20760149.5784         47.7504
        52.5004
 -15293901.13347 -10553588.87945  21389508.9534   21389505.7664         44.0004
        33.5004
 21  2  1  1 31  0.0000000  0  7G23G15G24G25G12G10G20
 -16904684.40247 -12418231.51645  21200075.8134   21200073.0784         44.2504
        35.5004
  -4653904.65646  -3564914.18444  23312387.7974   23312385.3794         40.5004
        26.0004
 -11137068.23846  -8496927.52045  22018157.6484   22018156.0204         39.5004
        31.2504
 -15209576.19547 -11818666.56648  20825690.6804   20825689.8754         44.2504
        48.7504
 -16501564.09047 -12426366.90246  20411029.1954   20411024.7154         47.0004
        39.5004
 -20785242.63748 -15473542.50048  20760924.8134   20760923.1094         49.5004
        52.7504
 -15213612.25047 -10491026.12145  21404787.6024   21404784.1214         43.2504
        33.2504
 21  2  1  1 31 30.0000000  0  7G23G15G24G25G12G10G20
 -16832063.75847 -12361644.03146  21213895.4384   21213892.3874         44.0004
        36.0004
  -4566162.08646  -3496543.36344  23329085.1024   23329080.9534         39.2504
        25.0004
 -11061773.45746  -8438256.27345  22032486.1024   22032484.2664         39.7504
        30.7504
 -15285837.77747 -11878091.16848  20811178.9614   20811178.2704         45.7504
        49.0004
 -16494178.30548 -12420611.74646  20412434.5394   20412430.1804         48.5004
        39.5004
 -20780562.18048 -15469895.39148  20761815.4774   20761813.6254         49.2504
        52.5004
 -15132943.31647 -10428167.24245  21420138.1414   21420134.6054         43.2504
        32.7504
 21  2  1  1 32  0.0000000  0  7G23G15G24G25G12G10G20
 -16759005.52347 -12304715.55946  21227797.7424   21227794.7384         43.7504
        36.0004
  -4478233.33646  -3428027.48444  23345816.6644   23345814.0664         39.2504
        25.7504
 -10986380.51246  -8379508.53145  22046832.3134   22046831.1094         39.7504
        31.2504
 -15361622.81647 -11937144.43048  20796757.4384   20796755.7664         44.7504
        48.5004
 -16486150.34447 -12414356.18046  20413962.0944   20413957.5594         46.0004
        39.5004
 -20775265.96548 -15465768.49648  20762823.3524   20762821.7154         49.0004
        52.5004
 -15051897.90247 -10365014.98445  21435560.8834   21435556.9304         43.2504
        33.0004
 21  2  1  1 32 30.0000000  0  7G23G15G24G25G12G10G20
 -16685512.11747 -12247447.99645  21241783.2034   21241780.2814         43.7504
        35.7504
  -4390119.41446  -3359367.35244  23362584.4534   23362582.3634         39.0004
        24.5004
 -10910890.12946  -8320684.87545  22061198.0234   22061196.9494         39.5004
        31.0004
 -15436929.03947 -11995824.60948  20782427.1564   20782425.4774         45.0004
        48.7504
 -16477480.60547 -12407600.52746  20415612.0084   20415607.3954         46.2504
        39.2504
 -20769354.09448 -15461161.83648  20763948.2974   20763946.4924         50.0004
        52.7504
 -14970478.49647 -10301571.31245  21451054.3364   21451050.9224         43.2504
        32.0004
 21  2  1  1 33  0.0000000  0  7G23G15G24G25G12G10G20
 -16611586.06247 -12189843.27345  21255851.3364   21255847.9924         44.0004
        35.7504
  -4301821.07046  -3290563.50844  23379387.0234   23379384.7194         38.5004
        26.5004
 -10835303.73046  -8261786.41045  22075581.7974   22075580.3954         39.7504
        30.2504
 -15511754.23447 -12054129.93748  20768187.9614   20768187.4614         46.0004
        49.0004
 -16468169.96547 -12400345.48046  20417383.7814   20417379.4224         45.5004
        39.0004
 -20762826.71947 -15456075.59848  20765190.3914   20765189.0044         47.7504
        52.7504
 -14888687.96547 -10237838.44545  21466618.5784   21466614.7934         43.5004
        32.0004
 21  2  1  1 33 30.0000000  0  7G23G15G24G25G12G10G20
 -16537229.83247 -12131903.37546  21270001.2504   21269997.7274         45.0004
        36.0004
  -4213338.96946  -3221616.49644  23396224.8284   23396222.2894         38.7504
        26.2504
 -10759622.38746  -8202813.93445  22089983.6484   22089981.7544         40.7504
        30.2504
 -15586096.14147 -12112058.68048  20754041.3984   20754040.0434         44.5004
        48.7504
 -16458218.80147 -12392591.32446  20419277.3364   20419273.0084         47.5004
        39.2504
 -20755684.07048 -15450509.89148  20766549.7974   20766548.2194         50.0004
        52.7504
 -14806529.16447 -10173818.60945  21482252.6884   21482249.0164         43.5004
        32.0004
 21  2  1  1 34  0.0000000  0  7G23G15G24G25G12G10G20
 -16462445.98047 -12073630.27046  21284231.4694   21284228.8134         44.0004
        36.2504
  -4124674.11346  -3152527.03943  23413096.9224   23413092.5044         39.0004
        22.7504
 -10683846.82046  -8143768.06644  22104403.2734   22104401.6644         39.5004
        29.2504
 -15659952.54347 -12169609.12148  20739987.4844   20739985.8054         45.7504
        49.0004
 -16447627.78547 -12384338.57846  20421292.8524   20421288.2584         47.0004
        39.5004
 -20747926.34848 -15444464.91848  20768026.0314   20768024.4414         49.0004
        52.7504
 -14724004.97347 -10109514.05545  21497956.2034   21497952.9304         43.5004
        32.5004
 21  2  1  1 34 30.0000000  0  7G23G15G24G25G12G10G20
 -16387237.03147 -12015025.91046  21298543.3914   21298540.9304         43.7504
        36.5004
  -4035827.43046  -3083295.90243  23430004.1174   23430000.1414         38.5004
        23.0004
 -10607978.61346  -8084650.01244  22118840.3204   22118838.8594         39.2504
        29.7504
 -15733321.27047 -12226779.53548  20726025.3284   20726024.4774         45.5004
        49.0004
 -16436397.42647 -12375587.64846  20423429.7114   20423425.3594         46.2504
        39.5004
 -20739553.79748 -15437940.85248  20769619.2504   20769617.5904         48.5004
        52.5004
 -14641118.31247 -10044927.09045  21513729.2034   21513726.2774         43.7504
        32.2504
 21  2  1  1 35  0.0000000  0  7G23G15G24G25G12G10G20
 -16311605.51247 -11956092.28546  21312935.1564   21312932.6724         43.5004
        36.0004
  -3946799.76246  -3013923.74243  23446945.8204   23446942.7734         38.7504
        22.5004
 -10532018.51646  -8025460.33245  22133295.2424   22133293.6684         39.5004
        30.2504
 -15806200.20747 -12283568.30948  20712157.2894   20712155.8554         45.0004
        49.0004
 -16424528.96147 -12366339.49646  20425688.2584   20425683.9104         46.7504
        39.2504
 -20730566.68048 -15430937.92248  20771329.3674   20771327.5594         49.0004
        52.5004
 -14557871.67647  -9980059.60545  21529571.0394   21529567.2504         44.5004
        33.5004
 21  2  1  1 35 30.0000000  0  7G23G15G24G25G12G10G20
 -16235553.99247 -11896831.36745  21327407.7114   21327404.4454         43.5004
        35.7504
  -3857591.88346  -2944411.17644  23463921.6804   23463919.0084         40.0004
        25.0004
 -10455967.21946  -7966199.60944  22147767.6174   22147765.3524         40.2504
        28.7504
 -15878587.08647 -12339973.65648  20698382.2194   20698381.1644         45.7504
        49.0004
 -16412022.53547 -12356594.21146  20428068.0944   20428063.5164         46.2504
        39.0004
 -20720965.33248 -15423456.35948  20773156.2504   20773154.7384         49.2504
        52.2504
 -14474268.59047  -9914914.36745  21545480.2424   21545476.4884         43.7504
        32.5004
 21  2  1  1 36  0.0000000  0  7G23G15G24G25G12G10G20
 -16159085.06647 -11837245.19546  21341959.4454   21341956.5274         43.7504
        36.0004
  -3768204.74646  -2874758.94544  23480931.2344   23480929.2934         39.5004
        25.0004
 -10379826.22746  -7906868.98444  22162256.8204   22162254.8164         39.7504
        29.0004
 -15950479.81647 -12395993.95348  20684701.2664   20684700.2734         46.0004
        49.5004
 -16398879.19947 -12346352.64546  20430569.2664   20430564.9884         46.5004
        39.0004
 -20710750.08248 -15415496.43448  20775100.5314   20775098.3954         49.0004
        52.2504
 -14390311.87147  -9849493.54345  21561456.3364   21561452.0704         42.5004
        31.7504
 21  2  1  1 36 30.0000000  0  7G23G15G24G25G12G10G20
 -16082201.27347 -11777335.76245  21356589.7584   21356586.7704         43.5004
        35.5004
  -3678639.21946  -2804967.66843  23497974.9384   23497972.9414         39.7504
        23.5004
 -10303596.41846  -7847469.14844  22176762.7274   22176760.6644         39.7504
        29.5004
 -16021876.28947 -12451627.54348  20671115.4384   20671114.3794         46.0004
        49.2504
 -16385099.64847 -12335615.32446  20433191.7034   20433186.9574         45.7504
        39.0004
 -20699921.22348 -15407058.37948  20777161.0944   20777159.3954         49.2504
        52.2504
 -14306003.84847  -9783799.00045  21577499.3914   21577495.5514         43.5004
        31.2504
 21  2  1  1 37  0.0000000  0  7G23G15G24G25G12G10G20
 -16004905.21547 -11717105.09445  21371298.6954   21371296.0514         43.5004
        35.5004
  -3588895.98946  -2735037.91243  23515051.6954   23515048.8674         38.0004
        22.2504
 -10227279.18746  -7788001.17644  22191284.5634   22191283.3284         39.5004
        29.7504
 -16092774.38347 -12506872.79748  20657623.7114   20657623.1884         44.7504
        49.0004
 -16370684.50847 -12324382.74646  20435934.8204   20435930.0744         47.2504
        39.2504
 -20688479.25448 -15398142.55148  20779338.1724   20779337.1804         48.7504
        52.5004
 -14221347.91447  -9717833.36745  21593609.5164   21593604.9884         42.7504
        31.7504
 21  2  1  1 37 30.0000000  0  7G23G15G24G25G12G10G20
 -15927199.52047 -11656555.21545  21386085.8204   21386082.4614         44.0004
        35.5004
  -3498975.87546  -2664970.32443  23532163.6174   23532160.2504         37.0004
        22.0004
 -10150875.31646  -7728465.72744  22205824.3674   22205822.7624         39.2504
        29.5004
 -16163172.02047 -12561728.10548  20644227.5234   20644226.6954         45.0004
        49.0004
 -16355634.91847 -12312655.78146  20438798.5554   20438794.2734         45.7504
        38.7504
 -20676424.47748 -15388749.22748  20781631.9144   20781630.6334         48.7504
        52.2504
 -14136347.25447  -9651599.11745  21609784.1644   21609780.6134         43.5004
        31.5004
 21  2  1  1 38  0.0000000  0  7G23G15G24G25G12G10G20
 -15849086.82847 -11595688.20345  21400950.2734   21400947.2814         43.7504
        35.5004
  -3408879.71946  -2594765.57843  23549308.7274   23549305.4264         39.0004
        22.7504
 -10074385.52046  -7668863.31244  22220380.2344   22220378.9654         39.0004
        29.5004
 -16233067.10947 -12616191.77348  20630926.7664   20630926.0594         45.2504
        49.7504
 -16339951.84047 -12300435.19146  20441782.6334   20441778.1254         46.0004
        39.0004
 -20663757.41047 -15378878.79348  20784042.6884   20784041.0044         47.7504
        52.2504
 -14051004.61747  -9585098.40245  21626024.9694   21626021.1134         43.0004
        30.2504
 21  2  1  1 38 30.0000000  0  7G23G15G24G25G12G10G20
 -15770569.73447 -11534506.07045  21415891.3594   21415888.4654         43.7504
        35.5004
  -3318608.55946  -2524424.47743  23566487.7034   23566483.4694         38.7504
        23.5004
  -9997811.51246  -7609195.26644  22234951.3204   22234949.8554         38.2504
        28.0004
 -16302457.59047 -12670262.27348  20617722.9064   20617720.9414         45.7504
        50.0004
 -16323635.91047 -12287721.48446  20444887.9534   20444883.4734         45.7504
        39.0004
 -20650478.48448 -15368531.59048  20786569.9924   20786567.9964         48.2504
        52.5004
 -13965322.78947  -9518333.33645  21642329.1094   21642325.6054         42.5004
        31.0004
 21  2  1  1 39  0.0000000  0  7G23G15G24G25G12G10G20
 -15691650.87947 -11473010.87145  21430909.0554   21430905.8324         43.5004
        34.7504
  -3228163.32846  -2453947.74244  23583698.6024   23583695.0984         39.5004
        24.0004
  -9921153.61346  -7549461.86344  22249539.2034   22249537.6414         38.2504
        29.0004
 -16371341.43047 -12723937.97348  20604614.0944   20604612.8324         46.0004
        50.0004
 -16306688.00447 -12274515.31646  20448112.5004   20448108.1844         46.0004
        39.0004
 -20636588.21148 -15357707.99248  20789212.6414   20789211.0784         48.0004
        52.5004
 -13879304.79347  -9451306.35945  21658697.9454   21658694.7584         42.5004
        32.0004
 21  2  1  1 39 30.0000000  0  7G23G15G24G25G12G10G20
 -15612332.90247 -11411204.68445  21446002.8364   21445999.9774         43.5004
        35.0004
  -3137544.97346  -2383336.09044  23600942.7894   23600940.3834         39.2504
        24.5004
  -9844412.82846  -7489663.85944  22264142.7034   22264140.2384         38.7504
        27.5004
 -16439716.64847 -12777217.34048  20591602.8284   20591601.9104         46.2504
        50.0004
 -16289109.06247 -12260817.43446  20451457.8134   20451453.0354         46.2504
        38.5004
 -20622087.11748 -15346408.45748  20791972.2194   20791970.4344         48.0004
        52.2504
 -13792953.75847  -9384019.85945  21675130.0554   21675126.5904         43.5004
        31.7504
 21  2  1  1 40  0.0000000  0  7G23G15G24G25G12G10G20
 -15532618.49647 -11349089.58645  21461171.6954   21461169.0594         42.7504
        34.2504
  -3046754.42246  -2312590.28943  23618218.3754   23618216.2734         36.2504
        22.2504
  -9767590.78046  -7429802.53344  22278760.9144   22278759.4494         39.0004
        28.0004
 -16507581.21147 -12830098.80948  20578688.6484   20578687.2504         45.5004
        50.2504
 -16270900.23047 -12246628.72346  20454922.7274   20454918.3874         47.0004
        38.7504
 -20606975.75048 -15334633.36348  20794847.6724   20794846.8324         48.0004
        52.7504
 -13706272.43747  -9316475.98845  21691624.7664   21691621.5634         42.0004
        30.7504
 21  2  1  1 40 30.0000000  0  7G23G15G24G25G12G10G20
 -15452510.35247 -11286667.67245  21476416.5004   21476413.1484         43.5004
        34.7504
  -2955792.44946  -2241710.90643  23635529.5004   23635526.2624         36.0004
        22.7504
  -9690687.44546  -7369877.88744  22293395.0314   22293393.3834         37.5004
        27.7504
 -16574933.13747 -12882580.81248  20565871.7114   20565870.5434         46.7504
        50.0004
 -16252062.42647 -12231949.90246  20458507.4924   20458503.1134         47.5004
        38.5004
 -20591254.65247 -15322383.17648  20797839.8134   20797838.7384         47.7504
        52.5004
 -13619263.85246  -9248677.12145  21708182.6094   21708178.5084         41.5004
        30.5004
 21  2  1  1 41  0.0000000  0  7G23G15G24G25G12G10G20
 -15372011.12547 -11223941.01245  21491734.5864   21491732.0864         43.0004
        34.7504
  -2864660.07846  -2170698.71943  23652870.6954   23652867.2194         37.2504
        22.5004
  -9613704.38746  -7309891.11744  22308044.8984   22308042.5744         38.5004
        28.5004
 -16641770.44147 -12934661.80948  20553153.1024   20553151.9844         46.0004
        49.5004
 -16232596.93047 -12216781.99246  20462212.1174   20462207.4064         47.2504
        38.7504
 -20574924.50848 -15309658.40248  20800946.9924   20800945.8014         48.2504
        52.5004
 -13531931.16847  -9180625.70345  21724801.6414   21724797.4264         42.5004
        30.2504
 21  2  1  1 41 30.0000000  0  7G23G15G24G25G12G10G20
 -15291123.58247 -11160911.76645  21507127.2194   21507124.0704         43.5004
        34.0004
  -2773358.11346  -2099554.37544  23670244.0004   23670241.7974         36.7504
        25.5004
  -9536642.59446  -7249842.97744  22322709.1644   22322707.2854         39.0004
        28.0004
 -16708091.25047 -12986340.34848  20540532.7194   20540531.4924         45.5004
        50.0004
 -16212504.53147 -12201125.56646  20466034.9144   20466030.6564         46.2504
        39.0004
 -20557985.86747 -15296459.47748  20804170.3054   20804169.6954         47.7504
        52.5004
 -13444277.21147  -9112323.93045  21741481.3914   21741476.8484         43.0004
        31.5004
 21  2  1  1 42  0.0000000  0  7G23G15G24G25G12G10G20
 -15209850.30947 -11097581.98445  21522592.9844   21522590.0554         43.0004
        34.5004
  -2681887.15246  -2028278.37143  23687651.1334   23687648.1294         36.7504
        23.2504
  -9459502.88746  -7189734.13744  22337388.3984   22337386.4224         38.7504
        27.5004
 -16773893.57847 -13037614.87948  20528011.1884   20528009.5394         46.2504
        50.0004
 -16191786.34847 -12184981.53546  20469978.1484   20469973.5554         46.2504
        39.2504
 -20540439.45748 -15282786.95748  20807509.4534   20807508.3484         49.0004
        52.5004
 -13356304.92247  -9043774.09845  21758222.1414   21758216.8444         42.5004
        30.5004
 21  2  1  1 42 30.0000000  0  7G23G15G24G25G12G10G20
 -15128194.07047 -11033953.77045  21538131.5084   21538128.3324         43.2504
        34.2504
  -2590248.70746  -1956871.85943  23705089.3914   23705087.2584         37.7504
        22.2504
  -9382286.43046  -7129565.50444  22352082.5944   22352080.1644         37.7504
        27.2504
 -16839175.57047 -13088483.94148  20515587.9924   20515587.3284         45.7504
        50.5004
 -16170443.40247 -12168350.66446  20474039.3054   20474034.7424         47.2504
        39.0004
 -20522285.96148 -15268641.39148  20810963.4064   20810962.4964         48.5004
        52.0004
 -13268017.49247  -8974978.71945  21775022.6484   21775018.5704         42.7504
        30.5004
 21  2  1  1 43  0.0000000  0  7G23G15G24G25G12G10G20
 -15046157.63347 -10970029.29345  21553742.3834   21553739.2504         44.0004
        34.7504
  -2498443.27046  -1885335.23443  23722559.8204   23722556.3404         38.5004
        22.5004
  -9304993.76246  -7069337.45344  22366790.2894   22366788.2114         38.5004
        26.5004
 -16903935.25847 -13138946.00848  20503264.8444   20503263.4574         45.7504
        50.2504
 -16148476.74247 -12151233.79346  20478219.4144   20478214.7974         45.7504
        39.0004
 -20503526.07448 -15254023.31248  20814533.8204   20814532.0984         48.5004
        51.7504
 -13179417.96546  -8905940.14844  21791882.0164   21791878.3834         41.7504
        28.7504
 21  2  1  1 43 30.0000000  0  7G23G15G24G25G12G10G20
 -14963743.70347 -10905810.66845  21569425.6954   21569422.6914         43.7504
        34.5004
  -2406471.96146  -1813669.30943  23740061.0944   23740057.4224         37.5004
        21.5004
  -9227626.04746  -7009050.93744  22381512.6334   22381511.2624         38.0004
        27.7504
 -16968170.83247 -13188999.70748  20491041.8134   20491039.7774         46.5004
        50.5004
 -16125887.80147 -12133632.01646  20482517.7814   20482513.2664         46.2504
        39.0004
 -20484160.53548 -15238933.28548  20818218.9844   20818217.3554         48.0004
        52.0004
 -13090509.21546  -8836660.63344  21808800.5944   21808797.6214         41.2504
        28.2504
 21  2  1  1 44  0.0000000  0  7G23G15G24G25G12G10G20
 -14880955.01247 -10841300.03145  21585179.1484   21585177.1524         43.5004
        34.5004
  -2314335.64846  -1741874.84043  23757593.8754   23757590.1684         36.2504
        21.7504
  -9150184.06646  -6948706.56244  22396249.9614   22396248.1134         37.5004
        27.5004
 -17031880.43047 -13238643.53548  20478917.7114   20478916.4964         45.7504
        50.5004
 -16102677.22347 -12115545.84846  20486934.6484   20486930.1724         47.0004
        39.0004
 -20464190.14547 -15223371.95748  20822019.1804   20822017.2384         47.7504
        51.5004
 -13001294.30546  -8767142.56644  21825777.7034   21825774.0354         41.5004
        29.5004
 21  2  1  1 44 30.0000000  0  7G23G15G24G25G12G10G20
 -14797794.32847 -10776499.52745  21601004.4534   21601001.5514         43.0004
        34.0004
  -2222035.34845  -1669952.57843  23775157.1564   23775154.5044         34.5004
        20.5004
  -9072669.27746  -6888305.43044  22411000.0554   22410999.2114         37.5004
        26.0004
 -17095062.25047 -13287876.11348  20466894.3054   20466893.6174         45.7504
        50.7504
 -16078846.72347 -12096976.62146  20491469.7114   20491465.2234         47.0004
        39.0004
 -20443615.66047 -15207339.91048  20825934.3524   20825932.4734         47.5004
        52.0004
 -12911776.14847  -8697388.19545  21842812.9774   21842808.6054         42.0004
        30.0004
 21  2  1  1 45  0.0000000  0  7G23G15G24G25G12G10G20
 -14714264.43447 -10711411.32045  21616899.6414   21616896.4344         42.7504
        34.0004
  -2129572.06646  -1597903.27344  23792754.1334   23792750.6484         38.7504
        24.0004
  -8995082.00046  -6827847.83644  22425764.6254   22425763.3404         38.0004
        27.0004
 -17157714.50047 -13336696.02748  20454972.2664   20454971.2384         45.7504
        50.7504
 -16054397.73847 -12077925.46946  20496122.0234   20496117.3594         46.7504
        38.7504
 -20422437.93747 -15190837.78948  20829964.2664   20829962.7704         47.7504
        51.7504
 -12821957.87147  -8627399.94144  21859905.2114   21859901.0984         42.0004
        29.7504
 21  2  1  1 45 30.0000000  0  7G23G15G24G25G12G10G20
 -14630368.11347 -10646037.58245  21632864.7664   21632861.7384         43.2504
        34.0004
  -2036946.71146  -1525727.71944  23810379.3984   23810377.8364         39.7504
        26.0004
  -8917423.14546  -6767334.46544  22440542.6644   22440540.8484         38.2504
        26.7504
 -17219835.28947 -13385101.83248  20443151.0164   20443150.0474         46.0004
        50.5004
 -16029331.30547 -12058393.17246  20500892.2504   20500887.6134         46.0004
        39.0004
 -20400657.77047 -15173866.25448  20834108.9384   20834107.5204         47.2504
        51.7504
 -12731842.85246  -8557180.48444  21877053.1094   21877049.2424         41.5004
        29.5004
 21  2  1  1 46  0.0000000  0  7G23G15G24G25G12G10G20
 -14546108.11347 -10580380.45745  21648898.8984   21648895.9844         43.0004
        33.5004
  -1944160.37146  -1453426.73044  23828036.8914   23828034.1334         39.5004
        25.0004
  -8839693.79746  -6706766.17244  22455333.9144   22455333.1524         38.0004
        27.0004
 -17281422.93047 -13433092.18748  20431431.2194   20431430.0084         46.0004
        50.5004
 -16003648.77747 -12038380.82046  20505778.9844   20505774.8554         46.0004
        38.7504
 -20378276.12947 -15156426.02348  20838368.4614   20838366.4884         47.2504
        51.7504
 -12641433.71946  -8486731.83244  21894257.1644   21894253.6764         41.0004
        29.0004
 21  2  1  1 46 30.0000000  0  7G23G15G24G25G12G10G20
 -14461487.25447 -10514442.14845  21665001.6564   21664998.8094         43.0004
        33.5004
  -1851213.75046  -1381000.82443  23845723.3594   23845720.6134         38.0004
        22.7504
  -8761894.82046  -6646143.62544  22470138.5784   22470137.2384         37.7504
        27.0004
 -17342475.66447 -13480665.74248  20419813.3914   20419812.0944         46.0004
        50.5004
 -15977351.25047 -12017889.23446  20510783.6644   20510779.2584         46.7504
        39.0004
 -20355293.88348 -15138517.78948  20842741.6024   20842740.1604         48.7504
        52.0004
 -12550733.43046  -8416056.31645  21911517.0704   21911513.2734         41.5004
        30.2504
 21  2  1  1 47  0.0000000  0  7G23G15G24G25G12G10G20
 -14376508.32847 -10448224.80945  21681172.0164   21681169.4924         42.0004
        32.7504
  -1758107.89846  -1308450.87543  23863441.1254   23863437.7274         37.7504
        22.7504
  -8684027.07446  -6585467.46544  22484955.8134   22484954.2114         37.7504
        26.2504
 -17402991.76647 -13527821.14148  20408297.5394   20408296.5634         45.7504
        51.0004
 -15950440.10247 -11996919.50846  20515904.6334   20515899.7384         46.5004
        39.0004
 -20331711.97348 -15120142.28948  20847228.9224   20847227.3874         49.0004
        52.0004
 -12459745.19946  -8345156.43045  21928831.4454   21928828.3954         41.2504
        30.0004
 21  2  1  1 47 30.0000000  0  7G23G15G24G25G12G10G20
 -14291174.10547 -10381730.63745  21697411.2424   21697408.2234         42.7504
        32.5004
  -1664844.02346  -1235777.76244  23881187.7504   23881186.4304         36.5004
        24.0004
  -8606091.21546  -6524738.24644  22499786.4224   22499785.3954         36.7504
        26.0004
 -17462969.55147 -13574557.07048  20396883.7814   20396882.5784         46.2504
        50.7504
 -15922916.76647 -11975472.75846  20521142.0084   20521137.2154         46.0004
        39.0004
 -20307531.31247 -15101300.22748  20851829.9924   20851829.0044         47.5004
        51.7504
 -12368471.96146  -8274034.45744  21946200.2194   21946196.8054         40.5004
        29.5004
 21  2  1  1 48  0.0000000  0  7G23G15G24G25G12G10G20
 -14205487.44547 -10314961.84445  21713717.1484   21713714.4224         42.7504
        33.7504
  -1571422.86345  -1162982.12943  23898965.1094   23898963.4344         35.5004
        21.5004
  -8528088.63746  -6463957.06044  22514630.4454   22514628.9654         38.2504
        26.5004
 -17522407.21947 -13620872.12948  20385573.2194   20385572.5204         46.0004
        51.0004
 -15894782.62547 -11953550.03146  20526495.6094   20526491.2154         46.2504
        38.7504
 -20282752.93748 -15081992.41048  20856545.7814   20856543.9534         48.5004
        51.5004
 -12276917.00046  -8202692.97744  21963622.4224   21963619.4534         40.0004
        29.0004
 21  2  1  1 48 30.0000000  0  8G23G31G15G24G25G12G10G20
 -14119451.21547 -10247920.64845  21730088.9844   21730086.3914         43.0004
        33.7504
    -57995.09815                  24034420.914                          30.500

  -1477845.35945  -1090064.66843  23916772.2114   23916770.3244         33.5004
        20.7504
  -8450019.50046  -6403123.97344  22529486.5164   22529484.8914         37.5004
        26.2504
 -17581303.23047 -13666765.10548  20374365.9384   20374364.5634         46.5004
        51.0004
 -15866039.11347 -11931152.50046  20531965.5474   20531960.7504         46.5004
        38.7504
 -20257377.84848 -15062219.61748  20861374.0784   20861372.8954         48.5004
        51.7504
 -12185083.37546  -8131134.34844  21981097.7734   21981094.1954         40.5004
        27.5004
 21  2  1  1 49  0.0000000  0  8G23G31G15G24G25G12G10G20
 -14033068.21147 -10180609.23445  21746527.7194   21746524.8204         42.7504
        33.7504
   -139158.40254    -60264.36352  24018976.3134   24018970.7814         28.7504
        13.7504
  -1384112.63345  -1017026.26643  23934609.1804   23934607.8404         33.5004
        20.5004
  -8371885.14546  -6342240.08244  22544355.4144   22544353.1604         37.5004
        25.2504
 -17639655.87147 -13712234.69548  20363261.7034   20363260.4534         46.2504
        51.0004
 -15836687.58647 -11908281.16846  20537550.7974   20537545.9304         47.0004
        38.7504
 -20231407.10248 -15041982.68448  20866316.2424   20866314.9344         49.0004
        52.0004
 -12092974.18046  -8059360.97744  21998625.9694   21998621.4104         40.0004
        28.0004
 21  2  1  1 49 30.0000000  0  8G23G31G15G24G25G12G10G20
 -13946341.24647 -10113029.82045  21763031.0394   21763028.3714         43.5004
        32.7504
   -220171.09445   -123391.23442  24003563.1484   24003556.1604         31.0004
        13.7504
  -1290225.80945   -943867.72743  23952475.7584   23952472.5704         33.2504
        18.5004
  -8293686.12146  -6281305.80943  22559235.6954   22559233.7774         37.5004
        23.5004
 -17697463.54347 -13757279.62548  20352260.9304   20352259.6804         46.5004
        50.7504
 -15806729.59047 -11884937.28546  20543251.7894   20543246.7154         46.7504
        38.7504
 -20204841.73448 -15021282.40248  20871371.8284   20871370.0984         48.7504
        51.5004
 -12000592.34446  -7987375.14544  22016205.5004   22016200.8874         40.0004
        27.2504
 21  2  1  1 50  0.0000000  0  8G23G31G15G24G25G12G10G20
 -13859273.20347 -10045184.60545  21779599.6804   21779595.7624         43.2504
        33.0004
                                  23988173.5784   23988168.9264         25.2504
        15.5004
  -1196185.69545   -870589.75443  23970371.4844   23970367.3444         35.0004
        19.0004
  -8215423.11346  -6220321.66444  22574129.2504   22574127.2664         37.5004
        24.2504
 -17754724.65647 -13801898.66448  20341365.1954   20341363.3324         46.5004
        51.0004
 -15776166.45347 -11861121.84846  20549067.8284   20549063.1054         46.0004
        38.5004
 -20177682.87947 -15000119.67248  20876539.7274   20876538.6054         47.5004
        51.5004
 -11907940.90646  -7915179.25044  22033836.9454   22033832.5864         41.0004
        28.5004
 21  2  1  1 50 30.0000000  0  7G23G15G24G25G12G10G20
 -13771866.94947  -9977075.86745  21796232.7114   21796228.9884         43.7504
        33.0004
  -1101993.29345   -797193.14843  23988295.6564   23988291.7274         34.2504
        19.0004
  -8137097.14146  -6159288.45744  22589033.4694   22589031.6764         37.0004
        24.5004
 -17811437.60547 -13846090.55948  20330572.6954   20330571.8014         46.2504
        51.0004
 -15744999.48047 -11836835.89846  20554998.6804   20554993.5124         46.5004
        38.5004
 -20149931.61748 -14978495.32848  20881820.6804   20881819.0474         48.2504
        51.5004
 -11815023.00446  -7842775.73044  22051517.8204   22051514.5474         40.7504
        28.5004
 21  2  1  1 51  0.0000000  0  7G23G15G24G25G12G10G20
 -13684125.35947  -9908705.81245  21812929.5554   21812925.7274         43.2504
        33.0004
  -1007649.60245   -723678.61343  24006248.8364   24006245.8204         35.7504
        19.5004
  -8058709.37146  -6098207.09844  22603950.3524   22603948.7544         38.2504
        24.2504
 -17867600.82047 -13889854.09048  20319885.3984   20319884.4264         46.0004
        51.2504
 -15713230.67647 -11812080.98046  20561043.7664   20561039.6294         45.7504
        38.5004
 -20121589.10948 -14956410.24248  20887214.0784   20887212.9144         48.5004
        51.7504
 -11721841.58646  -7770166.89144  22069250.2894   22069247.1914         38.7504
        27.7504
 21  2  1  1 51 30.0000000  0  7G23G15G24G25G12G10G20
 -13596051.23847  -9840076.65245  21829689.1334   21829685.5394         43.5004
        33.0004
   -913155.68045   -650047.04343  24024229.8834   24024228.0004         34.0004
        20.2504
  -7980260.37946  -6037078.05543  22618879.2504   22618876.9104         38.0004
        23.7504
 -17923212.78947 -13933188.07848  20309303.0164   20309301.4264         46.5004
        51.2504
 -15680861.54747 -11786858.28546  20567203.5004   20567199.0314         46.0004
        38.5004
 -20092656.54748 -14933865.42248  20892720.1334   20892718.2814         48.5004
        51.7504
 -11628399.83246  -7697355.16844  22087031.8674   22087027.9414         40.2504
        26.7504
 21  2  1  1 52  0.0000000  0  8G23G31G15G24G25G12G10G20
 -13507647.54347  -9771190.66045  21846511.5004   21846508.6914         42.7504
        32.5004
   -169818.47755   -238100.94152  23926913.1334   23926908.7734         30.5004
        16.7504
   -818512.48845   -576299.23043  24042240.7894   24042238.1134         35.0004
        20.5004
  -7901750.52746  -5975901.54344  22633819.2814   22633817.1334         38.2504
        25.0004
 -17978271.98447 -13976091.33248  20298824.8834   20298824.0784         46.2504
        51.5004
 -15647893.39847 -11761168.82446  20573477.0164   20573472.8594         46.2504
        38.7504
 -20063135.10248 -14910861.70748  20898337.6094   20898335.8444         50.2504
        51.5004
 -11534700.78546  -7624342.97344  22104862.4534   22104858.2384         40.0004
        27.2504
 21  2  1  1 52 30.0000000  0  7G23G15G24G25G12G10G20
 -13418917.10946  -9702050.10245  21863396.6564   21863393.3364         41.7504
        31.5004
   -723721.37145   -502436.07043  24060279.5784   24060276.1644         34.5004
        20.2504
  -7823180.78546  -5914678.39844  22648770.7344   22648769.0274         37.2504
        24.5004
 -18032776.94547 -14018562.70748  20288453.3364   20288452.0354         47.0004
        51.2504
 -15614327.75447 -11735013.78546  20579864.5704   20579859.9414         47.0004
        38.5004
 -20033025.99648 -14887400.08648  20904067.1334   20904065.9454         48.5004
        51.7504
 -11440747.68746  -7551132.79744  22122740.8054   22122737.4144         39.7504
        27.5004
 21  2  1  1 53  0.0000000  0  7G23G15G24G25G12G10G20
 -13329862.86747  -9632657.22345  21880342.7734   21880340.2774         42.2504
        32.2504
   -628783.31645   -428458.46943  24078345.2344   24078341.8284         34.0004
        20.5004
  -7744552.33246  -5853409.49244  22663732.6564   22663731.2274         38.0004
        24.2504
 -18086726.12147 -14060601.02048  20278187.0314   20278185.8554         47.7504
        51.5004
 -15580166.84447 -11708394.89146  20586365.1804   20586360.9614         46.7504
        38.2504
 -20002330.49248 -14863481.51248  20909908.7344   20909906.8834         49.0004
        52.0004
 -11346543.30546  -7477726.81644  22140667.5704   22140663.4144         40.0004
        29.2504
 21  2  1  1 53 30.0000000  0  7G23G15G24G25G12G10G20
 -13240487.66447  -9563014.24245  21897350.6414   21897348.0234         43.5004
        32.5004
   -533698.95745   -354366.76243  24096438.6724   24096435.6994         34.5004
        19.7504
  -7665865.40246  -5792095.02044  22678706.6484   22678705.0354         38.5004
        26.2504
 -18140118.13747 -14102205.17648  20268026.5394   20268025.6024         46.2504
        51.5004
 -15545411.76647 -11681313.01646  20592978.9384   20592974.5634         46.5004
        38.5004
 -19971049.88748 -14839107.03948  20915860.6644   20915859.8014         48.7504
        51.7504
 -11252090.93846  -7404127.60944  22158640.3284   22158637.0784         38.5004
        26.0004
 21  2  1  1 54  0.0000000  0  7G23G15G24G25G12G10G20
 -13150794.46547  -9493123.46545  21914418.8204   21914416.0314         43.0004
        32.2504
   -438469.46945   -280162.11743  24114559.9304   24114557.1024         32.0004
        19.7504
  -7587120.84846  -5730735.66843  22693690.9384   22693690.2544         36.5004
        22.5004
 -18192951.50447 -14143374.01648  20257972.9144   20257971.8364         45.7504
        51.5004
 -15510064.29347 -11653769.53546  20599704.9844   20599700.9024         46.0004
        38.2504
 -19939185.43047 -14814277.61748  20921924.5704   20921922.6214         47.7504
        51.5004
 -11157393.91446  -7330337.75444  22176661.6954   22176657.3634         39.2504
        27.0004
 21  2  1  1 54 30.0000000  0  7G23G15G24G25G12G10G20
 -13060786.12947  -9422987.13345  21931547.0864   21931543.8014         43.0004
        32.0004
   -343095.96955   -205845.14853  24132709.2974   24132707.0984         31.0004
        19.7504
  -7508319.45746  -5669332.01644  22708686.3134   22708685.8094         37.0004
        25.5004
 -18245224.87947 -14184106.48848  20248025.6804   20248024.5234         46.5004
        51.2504
 -15474126.10547 -11625765.75446  20606544.0704   20606539.4614         47.0004
        38.2504
 -19906738.42248 -14788994.24248  20928098.7734   20928096.8164         48.2504
        51.2504
 -11062454.81246  -7256359.25444  22194727.8834   22194723.5904         40.5004
        27.5004
 21  2  1  1 55  0.0000000  0  7G23G15G24G25G12G10G20
 -12970465.65647  -9352607.57045  21948734.0394   21948731.1524         43.0004
        31.2504
   -247579.21145   -131416.55143  24150885.1414   24150882.8874         31.7504
        19.0004
  -7429462.67546  -5607885.20844  22723693.3054   22723691.8134         38.0004
        25.2504
 -18296936.82847 -14224401.52048  20238185.6564   20238184.4654         46.0004
        51.5004
 -15437598.96147 -11597303.05946  20613494.7274   20613490.3324         47.2504
        38.0004
 -19873710.31248 -14763258.07848  20934383.7504   20934382.4694         48.2504
        51.2504
 -10967277.30546  -7182194.99644  22212839.1954   22212836.5164         41.0004
        27.7504
 21  2  1  1 55 30.0000000  0  7G23G15G24G25G12G10G20
 -12879835.87147  -9281986.98845  21965980.2424   21965977.2814         42.5004
        31.5004
   -151920.81645    -56877.64143  24169088.4694   24169086.9924         32.7504
        19.2504
  -7350550.54746  -5546395.24244  22738708.7114   22738707.9264         38.2504
        25.5004
 -18348086.04347 -14264258.02748  20228451.5474   20228450.5514         46.2504
        51.2504
 -15400484.24247 -11568382.49246  20620557.4614   20620552.6994         46.7504
        37.7504
 -19840102.43748 -14737070.13748  20940779.5474   20940777.6254         49.0004
        51.2504
 -10871864.22746  -7107847.16844  22230996.0394   22230992.4454         40.0004
        27.0004
 21  2  1  1 56  0.0000000  0  8G23G31G15G24G25G12G10G20
 -12788899.75447  -9211127.70345  21983285.2034   21983282.0744         43.0004
        32.2504
   -165115.78555   -321363.46953  23805776.3834   23805769.8794         34.0004
        19.0004
    -56121.79345     17770.89143  24187318.2894   24187317.2194         33.0004
        19.5004
  -7271584.13346  -5484863.01643  22753734.8914   22753733.7464         37.0004
        22.7504
 -18398671.12147 -14303674.95748  20218825.9924   20218824.2154         46.0004
        51.5004
 -15362783.93747 -11539005.62546  20627731.4064   20627727.0084         46.5004
        37.5004
 -19805916.24247 -14710431.55948  20947284.7424   20947283.2934         47.7504
        51.2504
 -10776218.82446  -7033318.31244  22249196.6024   22249192.3984         39.2504
        24.7504
 21  2  1  1 56 30.0000000  0  8G23G31G15G24G25G12G10G20
 -12697660.25847  -9140032.00045  22000647.8054   22000644.2934         43.0004
        32.2504
   -243997.69945   -382829.84443  23790764.7894   23790761.2424         32.0004
        19.5004
     39817.02345     92528.39843  24205575.2504   24205572.8874         33.0004
        18.2504
  -7192563.75446  -5423288.70343  22768772.1954   22768771.5704         36.7504
        22.7504
 -18448690.77747 -14342651.29748  20209307.2814   20209306.1764         46.5004
        51.5004
 -15324500.42247 -11509174.32446  20635016.3834   20635011.9454         45.2504
        37.7504
 -19771153.07448 -14683343.40648  20953899.8984   20953898.7464         48.0004
        51.0004
 -10680344.02046  -6958610.71944  22267441.5004   22267436.6914         40.5004
        27.0004
 21  2  1  1 57  0.0000000  0  8G23G31G15G24G25G12G10G20
 -12606120.30147  -9068702.18445  22018066.8204   22018064.3164         42.5004
        32.2504
   -322725.94945   -444176.57443  23775781.4304   23775777.5394         30.5004
        18.5004
    135894.71145    167394.07842  24223857.3914   24223855.9774         33.2504
        17.2504
  -7113490.23046  -5361673.02043  22783820.0944   22783819.1914         37.5004
        23.7504
 -18498143.73447 -14381186.05148  20199896.9064   20199895.3164         46.2504
        51.5004
 -15285634.80147 -11478889.43446  20642412.8524   20642408.2194         47.0004
        38.0004
 -19735814.41448 -14655806.80548  20960624.4844   20960623.0944         48.5004
        51.0004
 -10584242.90246  -6883726.74644  22285728.5784   22285723.6804         39.7504
        25.7504
 21  2  1  1 57 30.0000000  0  8G23G31G15G24G25G12G10G20
 -12514282.80147  -8997140.54345  22035542.8444   22035539.6374         43.0004
        30.7504
                                  23760829.9534   23760826.4774         31.2504
        21.2504
    232109.93445    242366.89542  24242168.0634   24242165.9924         34.7504
        16.7504
  -7034364.21546  -5300016.43444  22798877.4774   22798875.8594         36.5004
        25.0004
 -18547028.71147 -14419278.23048  20190594.6024   20190593.0744         47.0004
        52.0004
 -15246189.10947 -11448152.52346  20649919.1804   20649914.7304         46.7504
        37.7504
 -19699901.75848 -14627822.93748  20967458.8364   20967457.8834         49.0004
        51.2504
 -10487918.23846  -6808668.57444  22304058.3834   22304054.7154         39.7504
        27.5004
 21  2  1  1 58  0.0000000  0  8G23G31G15G24G25G12G10G20
 -12422150.75847  -8925349.36745  22053074.9694   22053072.2034         42.2504
        30.7504
   -479720.73855   -566510.05953  23745906.2114   23745903.4844         30.7504
        21.5004
    328461.75855    317446.24652  24260502.4384   24260501.6024         33.5004
        16.7504
  -6955186.69545  -5238319.69943  22813944.6414   22813943.3484         35.7504
        23.7504
 -18595344.44547 -14456926.83248  20181400.2194   20181398.4924         47.5004
        51.7504
 -15206165.30547 -11416965.14546  20657535.1724   20657530.5204         47.0004
        37.7504
 -19663416.57448 -14599392.94148  20974401.5314   20974400.0904         48.7504
        51.2504
 -10391373.55146  -6733439.01244  22322430.0784   22322426.8524         39.7504
        25.2504
 21  2  1  1 58 30.0000000  0  8G23G31G15G24G25G12G10G20
 -12329727.08647  -8853330.94945  22070662.4144   22070659.8714         42.0004
        31.0004
   -557986.98845   -627496.80143  23731014.4924   23731010.3794         33.0004
        22.7504
    424949.25845    392631.16442  24278863.9384   24278863.1454         34.2504
        16.7504
  -6875958.41046  -5176583.40243  22829020.8754   22829019.8714         36.2504
        23.0004
 -18643089.75447 -14494130.97348  20172314.3594   20172313.4144         46.7504
        51.5004
 -15165565.02747 -11385328.55546  20665261.2734   20665257.1414         46.5004
        38.2504
 -19626360.39548 -14570518.01648  20981453.5554   20981452.0944         50.0004
        51.7504
 -10294611.81246  -6658040.32044  22340843.3284   22340840.0314         38.5004
        24.5004
 21  2  1  1 59  0.0000000  0  8G23G31G15G24G25G12G10G20
 -12237014.78947  -8781087.64545  22088305.7114   22088302.2304         43.0004
        30.7504
   -636098.69145   -688363.08644  23716149.8444   23716145.8324         31.7504
        24.5004
    521570.92245    467920.75842  24297251.0554   24297249.2114         35.2504
        15.5004
  -6796679.92246  -5114807.95743  22844107.3914   22844104.9654         38.2504
        22.7504
 -18690263.39147 -14530889.63748  20163337.7194   20163336.0594         47.5004
        52.0004
 -15124390.13347 -11353244.20746  20673096.5474   20673092.6094         47.2504
        38.0004
 -19588734.80548 -14541199.39148  20988613.1414   20988611.7464         49.0004
        50.7504
 -10197636.08946  -6582474.87044  22359297.4304   22359293.9144         40.0004
        26.7504
 21  2  1  1 59 30.0000000  0  8G23G31G15G24G25G12G10G20
 -12144016.79747  -8708621.71545  22106002.4304   22105999.0234         42.7504
        31.5004
   -714055.68054   -749108.71154  23701313.6334   23701311.6174         29.5004
        24.7504
    618326.02345    543314.30142  24315663.6644   24315661.0664         35.0004
        15.5004
  -6717351.70346  -5052993.79743  22859202.8984   22859201.4414         38.0004
        22.5004
 -18736864.20748 -14567201.94548  20154469.6024   20154468.6884         48.0004
        52.0004
 -15082642.43047 -11320713.54346  20681041.0864   20681036.2234         46.7504
        37.5004
 -19550541.35948 -14511438.27748  20995881.7034   20995879.6294         49.2504
        51.2504
 -10100449.76646  -6506745.31644  22377792.0784   22377787.7464         40.0004
        26.2504
 21  2  1  2  0  0.0000000  0  8G23G31G15G24G25G12G10G20
 -12050736.11747  -8635935.50445  22123752.8594   22123749.9184         42.5004
        31.2504
   -791858.10555   -809733.92653  23686511.2734   23686506.7934         31.7504
        22.5004
    715213.20345    618810.78542  24334100.3204   24334098.8284         34.5004
        16.2504
  -6637974.36345  -4991141.36743  22874308.2274   22874307.0394         35.7504
        22.7504
 -18782891.03147 -14603066.99648  20145710.5944   20145710.1134         46.5004
        52.0004
 -15040323.54347 -11287737.79346  20689094.1334   20689089.8594         46.5004
        38.0004
 -19511781.65648 -14481235.93048  21003256.9614   21003255.1524         49.0004
        50.7504
 -10003055.70746  -6430853.84844  22396324.9224   22396320.3874         40.0004
        24.0004
 21  2  1  2  0 30.0000000  0  8G23G31G15G24G25G12G10G20
 -11957175.71147  -8563031.32445  22141556.5784   22141554.0594         42.2504
        30.7504
   -869505.69145   -870238.53144  23671734.6724   23671729.6764         33.5004
        25.7504
    812231.34845    694409.25042  24352562.5704   24352560.8714         32.2504
        16.2504
  -6558548.93046  -4929251.40643  22889421.3754   22889420.6604         36.0004
        22.5004
 -18828342.78147 -14638483.93748  20137061.7664   20137060.6484         46.7504
        51.7504
 -14997436.34047 -11254319.19146  20697254.9844   20697250.2854         46.7504
        37.7504
 -19472457.32048 -14450593.59848  21010739.7034   21010738.2424         48.0004
        50.2504
  -9905457.04746  -6354802.98043  22414897.2114   22414893.5124         39.5004
        23.7504
 21  2  1  2  1  0.0000000  0  8G23G31G15G24G25G12G10G20
 -11863338.52347  -8489911.47345  22159413.3284   22159410.5634         42.5004
        30.5004
   -946998.34455   -930622.42654  23656986.2194   23656983.4804         32.0004
        26.5004
    909379.45745    770109.01242  24371048.6954   24371047.6414         31.7504
        14.7504
  -6479076.00445  -4867324.48043  22904544.7274   22904543.3954         35.7504
        22.7504
 -18873218.28547 -14673451.85248  20128522.6024   20128521.3284         46.5004
        52.0004
 -14953982.34447 -11220458.94146  20705524.2734   20705519.3954         46.5004
        38.0004
 -19432569.96948 -14419512.57848  21018330.4064   21018329.1764         48.0004
        51.0004
  -9807657.09446  -6278595.27044  22433507.8364   22433504.7544         38.5004
        24.7504
 21  2  1  2  1 30.0000000  0  8G23G31G15G24G25G12G10G20
 -11769227.58247  -8416578.29745  22177322.0004   22177320.2894         42.2504
        30.0004
  -1024335.73445   -990885.32444  23642270.2504   23642267.6454         33.5004
        28.5004
   1006656.70355    845909.27352  24389562.7424   24389560.0354         30.2504
        13.7504
  -6399556.11746  -4805360.95743  22919677.6484   22919675.7974         37.5004
        22.7504
 -18917516.46947 -14707969.91848  20120092.9774   20120091.2974         46.2504
        52.0004
 -14909963.60247 -11186158.63746  20713900.6644   20713896.2464         46.7504
        37.5004
 -19392121.34047 -14387994.17248  21026027.6804   21026026.2074         47.7504
        50.7504
  -9709658.96946  -6202233.14544  22452155.7734   22452153.3094         39.7504
        25.7504
 21  2  1  2  2  0.0000000  0  8G23G31G15G24G25G12G10G20
 -11674845.87147  -8343034.16045  22195282.1954   22195279.7074         42.0004
        30.0004
  -1101517.74645  -1051027.09844  23627583.2114   23627580.1844         33.2504
        29.0004
   1104061.375 5                  24408094.508                          30.250

  -6319990.10546  -4743361.50843  22934818.2194   22934816.5274         36.0004
        22.5004
 -18961236.32047 -14742037.32848  20111772.7504   20111771.8954         46.2504
        52.0004
 -14865381.96147 -11151419.69546  20722383.8204   20722379.8834         46.0004
        37.5004
 -19351113.04748 -14356039.67248  21033831.2344   21033829.6724         48.0004
        50.5004
  -9611465.38746  -6125718.70744  22470842.3444   22470838.6134         41.7504
        27.7504
 21  2  1  2  2 30.0000000  0  8G23G31G15G24G25G12G10G20
 -11580196.33246  -8269281.30144  22213293.4224   22213290.9924         41.2504
        29.0004
  -1178544.30545  -1111047.69144  23612924.7034   23612921.7704         33.2504
        27.5004
   1201592.67214                  24426654.195                          28.500

  -6240378.22345  -4681326.30143  22949967.4774   22949966.6564         34.5004
        22.7504
 -19004376.80147 -14775653.27348  20103563.6334   20103562.5704         46.2504
        52.0004
 -14820239.39847 -11116243.67646  20730974.5784   20730970.2234         46.0004
        38.5004
 -19309546.92248 -14323650.48448  21041740.9144   21041739.8914         48.0004
        50.7504
  -9513079.71946  -6049054.60944  22489564.3284   22489560.9654         41.5004
        26.5004
 21  2  1  2  3  0.0000000  0  8G23G31G15G24G25G12G10G20
 -11485282.01247  -8195322.12945  22231355.6174   22231352.2814         43.2504
        30.2504
  -1255415.35545  -1170947.23444  23598297.4694   23598292.7734         35.2504
        27.0004
                                  24445239.883                          28.750

  -6160721.49245  -4619256.10243  22965126.1094   22965124.2114         34.7504
        22.2504
 -19046936.85247 -14808816.94948  20095465.0704   20095463.6214         46.2504
        52.5004
 -14774537.89147 -11080632.12146  20739671.0634   20739666.7194         45.5004
        37.5004
 -19267424.56647 -14290827.91048  21049756.7114   21049755.3404         47.2504
        50.5004
  -9414505.03146  -5972243.18444  22508322.4774   22508319.2384         41.5004
        27.0004
 21  2  1  2  3 30.0000000  0  7G23G31G24G25G12G10G20
 -11390105.88747  -8121158.94545  22249466.6884   22249464.4064         42.5004
        30.2504
  -1332130.87145  -1230725.51244  23583698.2664   23583695.2504         35.0004
        28.0004
  -6081020.34446  -4557151.35543  22980293.4064   22980291.3284         36.5004
        21.2504
 -19088915.52347 -14841527.59048  20087476.8054   20087475.4924         47.0004
        52.5004
 -14728279.15647 -11044586.36346  20748473.8754   20748469.1764         45.5004
        37.5004
 -19224747.84448 -14257573.32448  21057877.4454   21057876.0634         48.2504
        50.0004
  -9315744.69946  -5895287.14544  22527116.0634   22527112.8324         39.0004
        25.7504
 21  2  1  2  4  0.0000000  0  7G23G31G24G25G12G10G20
 -11294670.96147  -8046794.08645  22267627.9924   22267625.3284         42.7504
        30.5004
  -1408690.37545  -1290382.19545  23569129.4614   23569127.0084         33.5004
        30.2504
  -6001275.48845  -4495012.52743  22995467.9144   22995466.8914         34.5004
        22.5004
 -19130311.84447 -14873784.46148  20079599.1804   20079597.8554         46.5004
        52.2504
 -14681466.07447 -11008108.64546  20757381.9064   20757377.6884         45.2504
        37.5004
 -19181518.52748 -14223888.14548  21066103.6174   21066102.4184         48.2504
        50.0004
  -9216801.32046  -5818188.44944  22545944.0164   22545940.7544         39.2504
        24.5004
 21  2  1  2  4 30.0000000  0  7G23G31G24G25G12G10G20
 -11198980.19947  -7972229.90645  22285837.6724   22285834.4654         42.5004
        31.0004
  -1485093.89846  -1349917.35545  23554591.2274   23554587.5434         36.7504
        31.5004
  -5921487.21945  -4432839.89843  23010650.5394   23010650.2974         34.2504
        22.5004
 -19171124.89147 -14905586.83248  20071832.8674   20071831.3094         46.5004
        52.0004
 -14634100.58647 -10971200.47746  20766395.4534   20766391.3834         46.0004
        37.5004
 -19137738.39547 -14189773.77048  21074435.1484   21074433.4574         47.7504
        50.2504
  -9117678.17646  -5740949.69144  22564806.8054   22564803.2814         40.2504
        24.5004
 21  2  1  2  5  0.0000000  0  7G23G31G24G25G12G10G20
 -11103036.70347  -7897468.75445  22304094.5084   22304091.7544         42.2504
        30.0004
  -1561341.10546  -1409330.73445  23540080.3444   23540078.4224         36.7504
        30.0004
  -5841656.67246  -4370634.32844  23025841.6804   23025841.6054         36.2504
        24.5004
 -19211353.74247 -14936933.98448  20064177.3364   20064176.2074         47.0004
        52.2504
 -14586184.61347 -10933863.36346  20775513.6644   20775509.1374         45.5004
        37.5004
 -19093409.32047 -14155231.64148  21082870.6484   21082869.1604         47.0004
        50.2504
  -9018378.40646  -5663573.28944  22583702.8284   22583699.0824         40.2504
        24.2504
 21  2  1  2  5 30.0000000  0  7G23G31G24G25G12G10G20
 -11006843.40646  -7822512.96144  22322399.2034   22322397.1254         41.2504
        29.2504
  -1637432.15246  -1468622.45345  23525601.1804   23525598.1094         37.0004
        30.5004
  -5761783.80146  -4308395.77343  23041040.9384   23041040.9064         37.0004
        22.7504
 -19250997.52047 -14967825.23048  20056633.5634   20056632.4344         46.5004
        52.5004
 -14537720.09847 -10896098.81246  20784736.0944   20784731.9694         45.7504
        37.7504
 -19048533.10947 -14120263.16448  21091410.2814   21091408.9304         46.5004
        50.2504
  -8918905.23846  -5586061.76243  22602631.9774   22602628.5594         40.0004
        23.7504
 21  2  1  2  6  0.0000000  0  7G23G31G24G25G12G10G20
 -10910403.31646  -7747364.87544  22340750.8054   22340748.8554         41.5004
        28.2504
  -1713367.17246  -1527792.55545  23511151.6334   23511148.4574         37.0004
        32.0004
  -5681869.81645  -4246125.19143  23056249.2034   23056247.5824         34.0004
        22.0004
 -19290055.35247 -14998259.88748  20049200.6414   20049199.3674         45.7504
        52.2504
 -14488709.43447 -10857908.69146  20794062.3984   20794058.0824         45.5004
        37.2504
 -19003111.66847 -14084869.86348  21100053.2974   21100052.6454         46.2504
        50.2504
  -8819261.71546  -5508417.50443  22621593.5314   22621590.5164         38.2504
        22.5004
 21  2  1  2  6 30.0000000  0  7G23G31G24G25G12G10G20
 -10813719.48046  -7672026.85944  22359149.4774   22359147.6484         41.0004
        28.5004
  -1789145.52046  -1586840.56245  23496731.1254   23496727.0904         37.5004
        32.5004
  -5601914.84445  -4183822.64543  23071463.8134   23071462.2384         35.0004
        23.0004
 -19328526.35247 -15028237.28548  20041880.2194   20041878.7344         46.2504
        52.2504
 -14439154.61747 -10819294.55946  20803492.9384   20803488.3984         46.0004
        37.5004
 -18957146.88747 -14049053.16848  21108800.0394   21108799.0594         46.2504
        50.0004
  -8719450.80546  -5430642.82443  22640587.9694   22640583.1214         40.2504
        22.7504
 21  2  1  2  7  0.0000000  0  7G23G31G24G25G12G10G20
 -10716794.87946  -7596501.24644  22377593.5314   22377591.0084         41.2504
        29.5004
  -1864767.73046  -1645766.91845  23482340.5314   23482337.7504         38.0004
        32.5004
  -5521919.78946  -4121488.85943  23086686.3674   23086685.8204         36.2504
        22.0004
 -19366409.77747 -15057756.82448  20034671.4384   20034669.8554         46.2504
        52.5004
 -14389057.79747 -10780258.08246  20813025.6724   20813021.4224         46.5004
        37.7504
 -18910640.73847 -14012814.61348  21117650.4924   21117648.5434         47.0004
        50.0004
  -8619475.89146  -5352740.34843  22659612.1484   22659608.4774         39.0004
        22.7504
 21  2  1  2  7 30.0000000  0  7G23G31G24G25G12G10G20
 -10619632.59446  -7520790.42244  22396082.9064   22396080.3524         41.5004
        29.0004
  -1940232.96546  -1704571.01645  23467980.6094   23467975.9104         37.7504
        32.7504
  -5441884.91046  -4059124.02743  23101916.3594   23101915.2464         36.7504
        22.5004
 -19403704.81647 -15086817.88348  20027574.4614   20027573.2934         46.5004
        52.7504
 -14338421.41047 -10740801.16046  20822661.5314   20822657.1374         45.2504
        37.0004
 -18863595.10547 -13976155.69148  21126602.8204   21126601.6414         47.7504
        50.5004
  -8519339.76646  -5274712.25044  22678667.2584   22678664.0084         40.0004
        24.5004
 21  2  1  2  8  0.0000000  0  7G23G31G24G25G12G10G20
 -10522235.64846  -7444896.71544  22414616.8754   22414614.0514         40.7504
        28.5004
  -2015541.28546  -1763252.73445  23453649.2274   23453646.6994         39.0004
        34.5004
  -5361810.97746  -3996728.78143  23117153.7814   23117152.5554         36.0004
        21.7504
 -19440410.69147 -15115419.84448  20020588.8134   20020587.7854         46.0004
        52.5004
 -14287247.52347 -10700925.40646  20832399.6804   20832395.2274         45.2504
        37.2504
 -18816011.98447 -13939077.94148  21135657.6954   21135656.1484         47.0004
        50.2504
  -8419045.61746  -5196561.02043  22697752.0084   22697749.4694         37.5004
        22.5004
 21  2  1  2  8 30.0000000  0  7G23G31G24G25G12G10G20
 -10424606.98447  -7368822.50444  22433195.1954   22433193.3054         42.7504
        28.2504
  -2090692.71946  -1821812.24645  23439349.4384   23439345.3244         38.5004
        33.5004
  -5281698.27346  -3934303.34043  23132399.0864   23132397.7034         36.7504
        22.5004
 -19476526.64547 -15143562.13748  20013716.4844   20013715.3914         46.0004
        52.5004
 -14235538.30947 -10660632.53146  20842239.7814   20842234.9064         45.7504
        37.0004
 -18767893.31647 -13901582.91048  21144814.3054   21144812.9304         47.5004
        50.0004
  -8318596.61746  -5118289.11743  22716867.2894   22716864.0004         39.0004
        23.5004
 21  2  1  2  9  0.0000000  0  7G23G31G24G25G12G10G20
 -10326749.66847  -7292570.08644  22451817.0234   22451815.0274         42.0004
        28.0004
  -2165687.10946  -1880249.47345  23425078.5164   23425074.2074         39.2504
        33.0004
  -5201547.82445  -3871848.46943  23147651.4454   23147649.5274         35.5004
        21.0004
 -19512052.00847 -15171244.21948  20006956.4844   20006955.4224         46.5004
        52.5004
 -14183295.87547 -10619924.15246  20852180.7894   20852176.3524         45.2504
        37.0004
 -18719241.18447 -13863672.16448  21154072.6484   21154070.6024         47.0004
        50.0004
  -8217995.77746  -5039898.91443  22736011.1024   22736007.6884         38.0004
        22.0004
 21  2  1  2  9 30.0000000  0  7G23G31G24G25G12G10G20
 -10228666.76247  -7216141.89544  22470481.9844   22470479.6954         42.0004
        27.7504
  -2240524.61746  -1938564.37145  23410836.9384   23410832.6254         39.0004
        33.2504
  -5121359.94146  -3809364.46143  23162910.2114   23162908.2344         37.0004
        22.5004
 -19546986.02747 -15198465.51648  20000308.4534   20000307.5904         46.0004
        52.5004
 -14130522.57447 -10578802.10546  20862223.4454   20862219.0474         45.2504
        37.0004
 -18670057.60547 -13825347.27748  21163431.8134   21163430.1024         47.7504
        49.5004
  -8117246.01646  -4961392.68043  22755183.2344   22755179.6564         39.0004
        21.7504
 21  2  1  2 10  0.0000000  0  7G23G31G24G25G12G10G20
 -10130361.26246  -7139540.20344  22489188.3444   22489186.0984         41.0004
        29.0004
  -2315205.03146  -1996756.84845  23396625.2344   23396621.3754         38.2504
        34.0004
  -5041135.18045  -3746851.69943  23178177.0784   23178175.2814         34.2504
        21.2504
 -19581328.15647 -15225225.59448  19993773.4064   19993772.0944         46.5004
        52.5004
 -14077220.85247 -10537268.30146  20872366.2114   20872361.6254         45.5004
        36.5004
 -18620344.58247 -13786609.89148  21172891.7894   21172891.0944         47.7504
        49.5004
  -8016350.60546  -4882772.93743  22774382.7894   22774379.2894         37.0004
        22.5004
 21  2  1  2 10 30.0000000  0  7G23G31G24G25G12G10G20
 -10031836.22746  -7062767.47744  22507937.7194   22507935.4574         41.5004
        28.5004
  -2389728.11345  -2054826.74245  23382443.8204   23382441.3984         35.0004
        32.5004
  -4960873.99645  -3684310.52743  23193449.6414   23193448.8094         34.5004
        21.5004
 -19615077.59447 -15251523.85248  19987351.1334   19987349.5594         46.7504
        52.5004
 -14023392.89847 -10495324.44546  20882609.2504   20882604.5394         46.2504
        36.5004
 -18570104.24647 -13747461.58648  21182452.2814   21182451.3244         47.5004
        49.5004
  -7915312.63345  -4804042.10543  22793610.1414   22793606.7344         35.2504
        22.5004
 21  2  1  2 11  0.0000000  0  7G23G31G24G25G12G10G20
  -9933094.61347  -6985826.00844  22526727.4924   22526724.9964         42.0004
        29.2504
  -2464093.71945  -2112773.93045  23368292.6024   23368289.6844         34.7504
        31.0004
  -4880576.77046  -3621741.31243  23208730.8054   23208729.2384         37.5004
        22.0004
 -19648233.87947 -15277359.89848  19981041.7974   19981040.1884         46.7504
        52.5004
 -13969040.94147 -10452972.28546  20892952.3364   20892948.1134         45.5004
        37.0004
 -18519338.62948 -13707903.98048  21192113.1564   21192111.5234         48.0004
        49.7504
  -7814135.34046  -4725202.71143  22812863.0704   22812860.1604         38.2504
        22.5004
 21  2  1  2 11 30.0000000  0  7G23G31G24G25G12G10G20
  -9834139.52046  -6908718.20344  22545558.0944   22545555.5084         41.0004
        28.5004
  -2538302.00845  -2170598.55945  23354171.6804   23354168.0554         35.2504
        32.2504
  -4800244.43446  -3559144.71143  23224017.3524   23224015.5904         36.2504
        22.7504
 -19680796.30547 -15302733.21548  19974845.4534   19974844.2504         46.5004
        53.0004
 -13914167.39147 -10410213.66846  20903394.2814   20903390.2034         46.2504
        37.2504
 -18468049.89147 -13667938.73048  21201872.4774   21201870.7584         46.7504
        49.0004
  -7712821.33646  -4646256.78144  22832143.1884   22832139.2074         38.7504
        24.0004
 21  2  1  2 12  0.0000000  0  7G23G31G24G25G12G10G20
  -9734974.02046  -6831446.43444  22564428.4844   22564425.9184         40.5004
        27.2504
  -2612352.90646  -2228300.52745  23340079.7274   23340076.4964         36.7504
        31.5004
  -4719877.10246  -3496520.84043  23239309.7894   23239308.9454         36.2504
        22.0004
 -19712764.38347 -15327643.39148  19968762.2194   19968760.6294         47.0004
        53.0004
 -13858774.32047 -10367050.25046  20913935.5314   20913931.0784         45.5004
        37.0004
 -18416240.14147 -13627567.52048  21211732.2344   21211730.5234         47.5004
        49.7504
  -7611374.18746  -4567207.10243  22851447.6414   22851443.5394         40.0004
        22.7504
 21  2  1  2 12 30.0000000  0  7G23G31G24G25G12G10G20
  -9635601.10246  -6754013.00844  22583339.1954   22583335.7854         39.7504
        27.7504
  -2686246.00045  -2285879.57045  23326019.2814   23326015.3914         35.5004
        32.0004
  -4639475.66845  -3433870.37943  23254609.7344   23254609.1054         34.2504
        21.7504
 -19744137.56247 -15352090.02048  19962791.7194   19962790.3094         47.0004
        53.0004
 -13802864.33647 -10323484.03546  20924574.7194   20924570.1524         46.0004
        36.7504
 -18363911.55547 -13586792.00848  21221689.3524   21221687.7304         47.5004
        49.0004
  -7509796.89546  -4488056.00043  22870777.0004   22870773.7114         39.5004
        22.7504
 21  2  1  2 13  0.0000000  0  7G23G31G24G25G12G10G20
  -9536023.74646  -6676420.29744  22602288.0944   22602284.8984         40.5004
        27.2504
  -2759981.69946  -2343335.91045  23311987.3984   23311982.8364         38.5004
        33.0004
  -4559040.25045  -3371193.48443  23269916.4614   23269915.9144         34.7504
        22.5004
 -19774915.27747 -15376072.64848  19956935.2894   19956933.8364         46.7504
        53.0004
 -13746440.15247 -10279517.14146  20935312.2584   20935307.7504         46.2504
        37.0004
 -18311066.28947 -13545613.90248  21231745.8754   21231744.0204         47.0004
        49.2504
  -7408092.21946  -4408805.65643  22890131.0234   22890127.5124         39.0004
        22.2504
 21  2  1  2 13 30.0000000  0  7G23G31G24G25G12G10G20
  -9436245.07046  -6598670.72344  22621274.6024   22621271.9184         41.0004
        27.5004
  -2833559.61746  -2400669.30945  23297986.2344   23297982.3094         39.5004
        34.5004
  -4478571.77045  -3308490.80143  23285228.9844   23285229.2774         34.7504
        21.7504
 -19805097.09047 -15399590.94948  19951191.6884   19951190.5594         47.0004
        53.0004
 -13689503.70347 -10235151.09046  20946146.7194   20946142.1174         45.0004
        36.5004
 -18257706.57447 -13504034.91048  21241899.7584   21241898.3244         45.5004
        49.0004
  -7306263.52746  -4329458.66843  22909507.6954   22909504.6844         37.7504
        21.7504
 21  2  1  2 14  0.0000000  0  7G23G31G24G25G12G10G20
  -9336268.07846  -6520766.60244  22640299.9534   22640296.9184         41.5004
        28.0004
  -2906979.78146  -2457879.80546  23284014.5634   23284011.2854         38.5004
        36.0004
  -4398070.02745  -3245762.21943  23300548.7114   23300548.2424         34.7504
        21.5004
 -19834682.53147 -15422644.52048  19945561.7344   19945560.3914         46.7504
        53.0004
 -13632057.35247 -10190387.69946  20957078.0554   20957073.3714         45.5004
        36.2504
 -18203834.57447 -13462056.75448  21252150.5784   21252150.5904         46.0004
        49.0004
  -7204313.80545  -4250017.40243  22928908.7584   22928905.9574         35.2504
        22.5004
 21  2  1  2 14 30.0000000  0  7G23G31G24G25G12G10G20
  -9236095.83246  -6442710.34844  22659361.9844   22659359.4574         41.2504
        28.2504
  -2980242.10546  -2514967.28945  23270072.6174   23270069.3204         39.2504
        35.0004
  -4317536.01646  -3183008.43443  23315873.6334   23315872.4304         36.5004
        22.5004
 -19863671.12947 -15445233.04748  19940045.2734   19940043.8594         47.0004
        52.7504
 -13574103.28147 -10145228.68046  20968106.4454   20968101.8914         44.7504
        36.2504
 -18149452.55947 -13419681.16448  21262499.7734   21262498.4964         46.0004
        48.7504
  -7102246.18046  -4170484.25443  22948331.1804   22948328.3794         36.7504
        21.0004
 21  2  1  2 15  0.0000000  0  7G23G31G24G25G12G10G20
  -9135731.37146  -6364504.32444  22678460.3444   22678458.2544         41.0004
        27.5004
  -3053346.40646  -2571931.67246  23256162.2734   23256158.9884         40.5004
        36.7504
  -4236970.01246  -3120229.77043  23331204.8834   23331203.4534         37.0004
        22.5004
 -19892062.51647 -15467356.20348  19934642.6024   19934641.7894         46.7504
        53.0004
 -13515644.35247 -10099676.26646  20979231.0164   20979226.0044         45.2504
        36.0004
 -18094562.78147 -13376909.90248  21272944.4534   21272943.5234         46.5004
        49.0004
  -7000063.75446  -4090861.62943  22967776.5394   22967772.6414         37.2504
        20.5004
 21  2  1  2 15 30.0000000  0  7G23G31G24G25G12G10G20
  -9035177.75046  -6286150.87544  22697595.3054   22697592.5394         41.5004
        28.0004
  -3126292.86346  -2628773.05145  23242279.9384   23242277.5664         39.0004
        35.2504
  -4156372.38746  -3057426.50043  23346541.7114   23346540.9774         36.5004
        21.2504
 -19919856.28547 -15489013.67648  19929353.6724   19929352.3364         46.5004
        52.7504
 -13456682.90247 -10053732.28946  20990450.5784   20990446.0984         44.7504
        36.0004
 -18039167.50447 -13333744.78148  21283485.8914   21283484.8954         46.2504
        49.2504
  -6897769.42246  -4011151.82043  22987241.6024   22987238.7814         38.5004
        21.0004
 21  2  1  2 16  0.0000000  0  7G23G31G24G25G12G10G20
  -8934437.92646  -6207652.34844  22716765.7114   22716762.9534         41.2504
        27.5004
  -3199081.22346  -2685491.24245  23228429.2814   23228425.9774         38.2504
        35.0004
  -4075743.73445  -2994598.97343  23361884.8524   23361883.7424         35.5004
        19.7504
 -19947052.04747 -15510205.17248  19924178.3524   19924177.0784         47.5004
        53.0004
 -13397221.32847 -10007398.59446  21001765.9384   21001761.1884         45.2504
        36.0004
 -17983269.00847 -13290187.52748  21294123.7664   21294122.3324         47.0004
        49.5004
  -6795366.11746  -3931357.10543  23006729.0864   23006725.7194         37.2504
        21.0004
 21  2  1  2 16 30.0000000  0  7G23G31G24G25G12G10G20
  -8833514.99646  -6129011.14544  22735970.5784   22735968.0164         41.2504
        28.7504
  -3271711.64546  -2742086.32045  23214607.1804   23214605.0634         38.7504
        34.5004
  -3995084.69146  -2931747.81243  23377234.4224   23377232.1214         36.5004
        20.2504
 -19973649.46148 -15530930.43048  19919117.3524   19919115.9694         48.2504
        53.0004
 -13337261.95347  -9960677.00046  21013175.8204   21013170.9804         44.5004
        36.2504
 -17926869.62147 -13246239.98448  21304856.0864   21304854.7544         45.7504
        48.7504
  -6692857.15245  -3851480.01243  23026235.5474   23026232.8094         34.5004
        21.5004
 21  2  1  2 17  0.0000000  0  7G23G31G24G25G12G10G20
  -8732411.97746  -6050229.60944  22755210.0864   22755208.1174         41.0004
        28.0004
  -3344183.87946  -2798558.14845  23200817.2424   23200815.0664         39.2504
        35.7504
  -3914395.41845  -2868873.07443  23392587.7734   23392587.3954         35.0004
        22.0004
 -19999648.27048 -15551189.23448  19914169.9534   19914168.8794         48.0004
        53.2504
 -13276807.43747  -9913569.58646  21024680.0634   21024675.8164         45.2504
        36.2504
 -17869971.66847 -13201903.92248  21315683.2504   21315681.8594         45.5004
        48.7504
  -6590245.41845  -3771522.85543  23045761.6174   23045759.0744         34.5004
        19.0004
 21  2  1  2 17 30.0000000  0  7G23G31G24G25G12G10G20
  -8631131.91046  -5971310.14844  22774482.7584   22774481.0124         40.5004
        27.5004
  -3416497.72746  -2854906.59045  23187056.4694   23187051.8954         37.5004
        34.5004
  -3833676.89546  -2805975.52044  23407948.8914   23407947.9184         37.0004
        24.0004
 -20025048.15248 -15570981.34048  19909336.1484   19909335.2034         48.2504
        53.0004
 -13215859.82447  -9866077.93746  21036277.8364   21036273.4694         44.7504
        36.0004
 -17812577.51247 -13157181.20748  21326604.7664   21326603.6844         47.0004
        48.7504
  -6487533.98845  -3691488.05943  23065307.8754   23065305.2234         34.7504
        19.7504
 21  2  1  2 18  0.0000000  0  7G23G31G24G25G12G10G20
  -8529677.84046  -5892255.05544  22793789.1804   22793787.0554         40.7504
        27.0004
  -3488653.43446  -2911131.75845  23173324.7734   23173321.1254         38.2504
        34.0004
  -3752928.82446  -2743055.01643  23423314.4844   23423313.6724         37.7504
        22.7504
 -20049848.83648 -15590306.53948  19904617.1644   19904615.8914         48.0004
        53.0004
 -13154422.09847  -9818204.39846  21047969.1644   21047964.5274         45.0004
        36.2504
 -17754689.48847 -13112073.68448  21337620.9614   21337619.9414         46.2504
        48.5004
  -6384726.04345  -3611378.03143  23084871.4694   23084868.7304         35.2504
        20.0004
 21  2  1  2 18 30.0000000  0  7G23G31G24G25G12G10G20
  -8428052.81646  -5813066.75444  22813127.3914   22813125.1564         41.2504
        26.7504
  -3560650.56246  -2967233.40245  23159624.4774   23159621.4104         40.0004
        35.7504
  -3672152.09446  -2680112.10543  23438685.7424   23438684.3874         37.2504
        20.7504
 -20074050.11747 -15609164.66448  19900011.5474   19900010.2344         47.7504
        52.7504
 -13092496.60247  -9769950.76645  21059753.4534   21059749.0314         45.0004
        35.7504
 -17696309.98847 -13066583.20348  21348729.9454   21348728.4844         46.5004
        48.5004
  -6281824.28946  -3531194.92643  23104452.8754   23104450.7504         36.5004
        19.0004
 21  2  1  2 19  0.0000000  0  7G23G31G24G25G12G10G20
  -8326259.86346  -5733747.61744  22832498.7584   22832495.2274         40.0004
        26.0004
  -3632489.60246  -3023211.85945  23145954.4774   23145950.5784         38.0004
        34.7504
  -3591346.83645  -2617147.00443  23454062.6484   23454060.6764         34.2504
        20.5004
 -20097651.76247 -15627555.54748  19895520.0234   19895518.8284         47.5004
        52.7504
 -13030085.93747  -9721319.08245  21071629.2344   21071624.2464         45.5004
        35.2504
 -17637441.44547 -13020711.63748  21359932.5004   21359931.3914         47.0004
        49.0004
  -6178832.15646  -3450941.32043  23124051.8364   23124048.5744         37.5004
        19.2504
 21  2  1  2 19 30.0000000  0  7G23G31G24G25G12G10G20
  -8224302.04346  -5654300.02044  22851901.1024   22851897.6804         40.7504
        25.7504
  -3704170.14146  -3079066.76245  23132312.8364   23132309.2274         37.5004
        32.5004
  -3510513.83245  -2554160.25043  23469445.0234   23469443.2974         35.0004
        19.5004
 -20120653.59048 -15645479.03948  19891143.0554   19891141.6684         48.0004
        52.7504
 -12967192.55947  -9672311.27345  21083597.7584   21083593.6254         45.2504
        35.7504
 -17578086.21947 -12974460.81648  21371227.2664   21371225.9414         47.2504
        48.0004
  -6075752.50446  -3370619.57443  23143667.9614   23143664.3324         37.5004
        19.0004
 21  2  1  2 20  0.0000000  0  7G23G31G24G25G12G10G20
  -8122182.39546  -5574726.27044  22871333.2664   22871330.6564         40.0004
        26.0004
  -3775692.28946  -3134798.28145  23118703.5314   23118699.6564         38.7504
        34.0004
  -3429652.86345  -2491151.75843  23484832.2424   23484831.0704         34.5004
        20.5004
 -20143055.43747 -15662935.01648  19886880.1484   19886879.0394         47.5004
        53.0004
 -12903819.22747  -9622929.47745  21095657.0864   21095652.7194         45.0004
        35.0004
 -17518246.82847 -12927832.74248  21382614.4304   21382612.8284         46.5004
        48.0004
  -5972588.45346  -3290232.03143  23163299.2664   23163295.7664         36.0004
        18.5004
 21  2  1  2 20 30.0000000  0  7G23G31G24G25G12G10G20
  -8019903.87146  -5495028.78144  22890795.4144   22890794.2624         40.7504
        26.5004
  -3847056.22346  -3190406.47345  23105122.7814   23105118.8674         37.0004
        33.5004
  -3348765.05146  -2428122.31643  23500224.8364   23500223.2814         37.0004
        22.0004
 -20164857.21547 -15679923.38748  19882731.7974   19882729.9064         47.7504
        53.0004
 -12839968.25047  -9573175.47745  21107807.5944   21107802.6644         45.2504
        35.5004
 -17457925.64147 -12880829.25048  21394092.8134   21394091.8364         46.5004
        48.2504
  -5869342.87145  -3209781.00442  23182945.4774   23182943.1454         35.7504
        16.2504
 21  2  1  2 21  0.0000000  0  7G23G31G24G25G12G10G20
  -7917469.68046  -5415209.97744  22910288.7734   22910286.9184         39.5004
        25.7504
  -3918261.27346  -3245890.90645  23091573.4694   23091570.4104         37.2504
        34.7504
  -3267850.68046  -2365072.15643  23515622.3984   23515622.1454         37.5004
        22.5004
 -20186058.74248 -15696444.05548  19878697.2274   19878695.5004         48.5004
        53.0004
 -12775641.83247  -9523051.01246  21120049.1254   21120044.4494         45.5004
        36.0004
 -17397125.16447 -12833452.28147  21405663.2584   21405662.0634         44.5004
        47.5004
  -5766018.74245  -3129268.77042  23202607.0234   23202604.8054         32.2504
        14.7504
 21  2  1  2 21 30.0000000  0  7G23G31G24G25G12G10G20
  -7814882.61346  -5335272.03544  22929810.5394   22929808.3014         38.5004
        25.5004
  -3989307.99646  -3301251.96145  23078053.7504   23078051.1414         38.2504
        35.2504
  -3186909.99246  -2302001.55143  23531024.8284   23531023.9344         36.0004
        22.0004
 -20206659.99247 -15712496.97348  19874776.6804   19874774.9804         47.7504
        53.0004
 -12710842.49647  -9472558.04345  21132379.9144   21132374.8834         46.0004
        35.5004
 -17335847.90647 -12785703.77347  21417323.3674   21417322.4654         46.2504
        47.5004
  -5662619.03145  -3048697.57842  23222284.3834   23222281.1994         34.7504
        16.2504
 21  2  1  2 22  0.0000000  0  7G23G31G24G25G12G10G20
  -7712145.82446  -5255217.43444  22949360.1414   22949358.6294         38.2504
        24.7504
  -4060196.17646  -3356489.46945  23064564.6644   23064560.6454         37.5004
        34.7504
  -3105943.03946  -2238910.48443  23546432.1564   23546431.4184         37.0004
        20.7504
 -20226660.91047 -15728082.08648  19870970.5084   19870969.1564         47.7504
        53.0004
 -12645573.67647  -9421699.23846  21144799.5784   21144795.1994         45.7504
        36.5004
 -17274096.37947 -12737585.72747  21429074.5474   21429073.3714         46.0004
        47.7504
  -5559146.90645  -2968070.05542  23241973.4064   23241971.7934         32.2504
        16.2504
 21  2  1  2 22 30.0000000  0  7G23G31G24G25G12G10G20
  -7609262.32846  -5175048.53143  22968938.4614   22968935.7274         38.5004
        22.5004
  -4130925.78546  -3411603.43745  23051104.1484   23051100.8484         38.7504
        34.0004
  -3024950.48845  -2175799.41443  23561844.0704   23561843.2194         34.7504
        19.7504
 -20246061.44948 -15743199.38348  19867278.7504   19867277.4264         48.0004
        53.0004
 -12579837.65247  -9370476.37145  21157309.1174   21157304.7034         45.7504
        35.5004
 -17211873.04347 -12689100.04748  21440915.3914   21440914.1294         46.0004
        48.2504
  -5455605.48845  -2887388.46542  23261678.2344   23261676.1024         32.2504
        14.7504
 21  2  1  2 23  0.0000000  0  7G23G31G24G25G12G10G20
  -7506235.17646  -5094767.68743  22988543.9844   22988541.4884         38.2504
        22.7504
  -4201496.81246  -3466593.83645  23037675.6094   23037672.2704         38.2504
        34.5004
  -2943933.24246  -2112669.12143  23577261.4844   23577260.3754         36.7504
        21.2504
 -20264861.57848 -15757848.83648  19863701.3834   19863699.4774         48.0004
        52.7504
 -12513636.75447  -9318891.27045  21169906.6564   21169902.2734         46.0004
        35.5004
 -17149180.48047 -12640248.71548  21452845.4304   21452844.2894         46.0004
        48.0004
  -5351997.50845  -2806654.99642  23281394.4064   23281392.7854         30.2504
        14.7504
 21  2  1  2 23 30.0000000  0  7G23G31G24G25G12G10G20
  -7403067.39546  -5014377.24643  23008176.6254   23008173.4344         38.2504
        23.7504
  -4271909.15246  -3521460.53545  23024276.7194   23024272.2234         38.5004
        35.5004
  -2862891.06246  -2049519.46543  23592683.7814   23592682.1524         36.5004
        22.0004
 -20283061.37147 -15772030.48048  19860237.8284   19860236.1764         47.5004
        52.7504
 -12446973.60947  -9266945.98845  21182592.3284   21182587.7584         46.0004
        35.0004
 -17086021.27747 -12591033.78547  21464864.3284   21464863.4694         45.7504
        47.7504
  -5248326.14114                  23301120.539                          29.750

 21  2  1  2 24  0.0000000  0  7G23G31G24G25G12G10G20
  -7299761.98846  -4933879.57444  23027835.4224   23027832.7664         38.0004
        24.5004
  -4342162.75046  -3576203.53946  23010906.9384   23010904.1174         40.2504
        36.5004
  -2781824.28546  -1986350.52043  23608110.1884   23608108.6174         37.2504
        21.5004
 -20300660.82047 -15785744.32848  19856888.5864   19856887.5354         47.5004
        52.7504
 -12379851.08247  -9214642.73045  21195365.1254   21195360.2894         46.0004
        35.2504
 -17022397.93747 -12541457.18447  21476971.6094   21476970.5634         45.5004
        47.5004
                                  23320859.734                          29.500

 21  2  1  2 24 30.0000000  0  7G23G31G24G25G12G10G20
  -7196321.99646  -4853277.02044  23047518.5554   23047516.4264         37.5004
        25.0004
  -4412257.78146  -3630823.01246  22997568.8674   22997565.4774         40.5004
        37.0004
  -2700733.29346  -1923162.74643  23623541.4224   23623540.4184         36.7504
        22.0004
 -20317660.03147 -15798990.46148  19853654.2664   19853652.2974         46.7504
        52.7504
 -12312271.61747  -9161983.40645  21208225.3984   21208220.5434         45.2504
        35.0004
 -16958313.08647 -12491520.93748  21489166.5004   21489165.6524         45.5004
        48.2504
                                  23340612.391                          31.750

 21  2  1  2 25  0.0000000  0  7G23G31G24G25G12G10G20
  -7092750.37546  -4772571.93743  23067227.5314   23067224.9184         38.0004
        22.0004
  -4482194.00446  -3685318.75446  22984260.6484   22984256.4064         40.5004
        36.2504
  -2619618.87945  -1859956.76643  23638976.4844   23638976.0594         34.7504
        20.7504
 -20334059.05548 -15811768.91848  19850533.4384   19850531.8134         48.0004
        53.0004
 -12244237.98047  -9108970.19145  21221171.6174   21221167.1564         45.5004
        35.5004
 -16893769.30147 -12441227.12147  21501448.0004   21501447.3014         44.7504
        47.0004
  -4936960.39115                  23360373.320                          32.750

 21  2  1  2 25 30.0000000  0  7G23G31G24G25G12G10G20
  -6989050.19546  -4691766.65243  23086961.4774   23086957.5354         36.0004
        21.7504
  -4551971.45746  -3739690.76246  22970982.4304   22970978.6764         40.5004
        37.0004
  -2538480.94946  -1796732.43043  23654416.4694   23654415.5314         36.7504
        21.0004
 -20349858.04748 -15824079.81648  19847526.7584   19847525.0354         48.0004
        53.2504
 -12175752.43047  -9055604.84045  21234204.0164   21234199.1094         45.0004
        34.7504
 -16828769.21947 -12390577.74247  21513817.8284   21513816.3404         44.7504
        46.7504
  -4833064.727 5                  23380144.664                          32.250

 21  2  1  2 26  0.0000000  0  7G23G31G24G25G12G10G20
  -6885224.44546  -4610863.54343  23106718.9844   23106715.8554         36.0004
        21.5004
  -4621590.07046  -3793939.00046  22957734.2274   22957730.4064         40.5004
        36.0004
  -2457320.16446  -1733490.27743  23669861.8984   23669860.2734         37.5004
        23.7504
 -20365057.16848 -15835923.28948  19844634.4694   19844633.2384         48.0004
        53.0004
 -12106818.03947  -9001889.73045  21247322.0004   21247316.9534         45.5004
        35.5004
 -16763315.50047 -12339574.84047  21526273.1484   21526272.1684         44.7504
        47.0004
  -4729120.766 5                  23399924.969                          33.000

 21  2  1  2 26 30.0000000  0  7G23G31G24G25G12G10G20
  -6781276.21545  -4529864.94543  23126499.4844   23126496.3054         34.5004
        21.2504
  -4691050.13746  -3848063.68446  22944516.4454   22944513.1884         41.0004
        37.0004
  -2376136.32046  -1670230.22743  23685310.7344   23685309.0084         37.5004
        22.5004
 -20379656.52048 -15847299.39848  19841856.7664   19841855.6174         48.0004
        53.2504
 -12037437.33647  -8947826.85545  21260524.4384   21260520.0354         46.0004
        35.5004
 -16697410.71947 -12288220.48447  21538814.3134   21538813.2664         45.2504
        47.0004
  -4625130.957 5                  23419712.477                          32.000

 21  2  1  2 27  0.0000000  0  7G23G31G24G25G12G10G20
  -6677208.39845  -4448773.14143  23146303.5704   23146301.0004         35.5004
        22.0004
  -4760351.29746  -3902064.57846  22931329.5084   22931325.2114         39.7504
        37.0004
  -2294930.28146  -1606952.82043  23700763.7114   23700762.1174         38.5004
        22.5004
 -20393656.36748 -15858208.35948  19839192.5474   19839191.3834         48.2504
        53.0004
 -11967612.85247  -8893418.16445  21273811.5944   21273806.7814         46.5004
        35.0004
 -16631057.59847 -12236516.77747  21551441.5004   21551439.8244         47.2504
        47.7504
  -4521098.289 5                  23439508.828                          30.000

 21  2  1  2 27 30.0000000  0  7G23G31G24G25G12G10G20
  -6573024.12946  -4367590.66843  23166128.8984   23166126.8014         36.5004
        22.5004
  -4829493.73846  -3955941.68746  22918170.8204   22918167.2384         39.5004
        37.0004
  -2213702.46146  -1543658.44143  23716220.3834   23716219.6334         38.0004
        22.2504
 -20407056.90247 -15868650.33248  19836642.3834   19836640.9184         47.0004
        53.0004
 -11897347.44147  -8838665.88745  21287182.6414   21287177.4694         46.5004
        34.7504
 -16564258.80947 -12184465.78147  21564152.7894   21564151.3364         45.7504
        46.7504
                                  23459311.227                          25.750

 21  2  1  2 28  0.0000000  0  7G23G31G24G25G12G10G20
  -6468726.31646  -4286319.76243  23185976.9774   23185974.2424         36.5004
        22.0004
  -4898477.12946  -4009694.97346  22905043.7974   22905041.1524         39.5004
        38.0004
  -2132452.85545  -1480347.08243  23731680.8984   23731680.2814         33.0004
        20.0004
 -20419858.34847 -15878625.47748  19834206.1484   19834205.0744         46.2504
        53.0004
 -11826643.74647  -8783572.12145  21300637.4694   21300632.4024         46.0004
        35.5004
 -16497016.98847 -12132069.57447  21576947.8914   21576946.6134         45.0004
        46.0004
                                  23479122.867                          26.750

 21  2  1  2 28 30.0000000  0  7G23G31G24G25G12G10G20
  -6364318.07045  -4204962.73043  23205844.5314   23205842.0234         35.5004
        22.2504
  -4967301.86346  -4063324.58646  22891947.0004   22891942.9454         38.0004
        36.0004
  -2051181.79745  -1417019.00843  23747146.1884   23747145.9264         34.0004
        21.5004
 -20432061.00047 -15888134.03548  19831884.3054   19831882.8324         47.0004
        53.0004
 -11755504.62947  -8728139.03945  21314174.6804   21314169.9734         44.0004
        35.2504
 -16429334.90247 -12079330.32447  21589827.9224   21589826.1644         45.7504
        46.2504
  -4208774.039 5                  23498943.961                          31.750

 21  2  1  2 29  0.0000000  0  7G23G31G24G25G12G10G20
  -6259802.24646  -4123521.87543  23225733.0234   23225730.6724         37.2504
        21.0004
  -5035967.65246  -4116830.39846  22878880.6174   22878877.3714         38.7504
        36.5004
  -1969889.44145  -1353674.35243  23762616.0554   23762615.0784         34.0004
        20.2504
 -20443665.16847 -15897176.22348  19829676.1334   19829674.5984         46.5004
        53.0004
 -11683932.48447  -8672368.54745  21327794.2734   21327790.0354         46.2504
        34.7504
 -16361215.25447 -12026250.09047  21602790.3834   21602789.0664         45.7504
        46.7504
  -4104600.297 5                  23518766.969                          32.750

 21  2  1  2 29 30.0000000  0  7G23G31G24G25G12G10G20
  -6155181.91046  -4041999.61343  23245642.2894   23245639.0824         37.5004
        22.0004
  -5104474.88346  -4170212.62145  22865843.2974   22865840.5084         38.2504
        34.7504
  -1888576.30145  -1290313.46143  23778089.1724   23778088.3954         33.0004
        19.7504
 -20454671.17647 -15905752.32848  19827581.5474   19827580.1054         47.0004
        53.0004
 -11611930.15247  -8616262.84445  21341495.8914   21341491.4384         46.2504
        35.2504
 -16292660.75447 -11972831.03547  21615836.2194   21615835.0004         45.7504
        46.7504
  -4000398.437 5                  23538595.461                          32.750

 21  2  1  2 30  0.0000000  0  7G23G31G24G25G12G10G20
  -6050460.01646  -3960398.18043  23265570.5704   23265567.2934         38.0004
        22.0004
  -5172823.16446  -4223470.96545  22852837.1414   22852833.8484         38.2504
        35.7504
  -1807242.63745  -1226936.67243  23793567.7734   23793566.4264         35.5004
        20.2504
 -20465079.31247 -15913862.55548  19825600.9384   19825599.7504         46.7504
        53.0004
 -11539500.35547  -8559824.04745  21355278.7664   21355274.0234         45.7504
        34.7504
 -16223674.14847 -11919075.26647  21628963.6564   21628963.0084         45.2504
        46.7504
  -3896171.516 5                  23558428.875                          32.250

 21  2  1  2 30 30.0000000  0  7G23G31G24G25G12G10G20
  -5945639.70746  -3878720.05943  23285517.1024   23285513.2234         36.5004
        20.2504
  -5241012.49246  -4276605.45346  22839861.5554   22839858.6054         38.5004
        36.7504
  -1725888.91045  -1163544.16843  23809048.0554   23809048.2424         33.7504
        22.0004
 -20474890.00448 -15921507.23048  19823734.0084   19823732.7304         48.2504
        53.0004
 -11466645.64847  -8503054.13745  21369142.8444   21369137.4654         45.5004
        34.5004
 -16154258.24647 -11864984.97347  21642173.0394   21642172.0164         45.0004
        46.2504
  -3791922.410 5                  23578267.336                          32.500

 21  2  1  2 31  0.0000000  0  7G23G31G24G25G12G10G20
  -5840723.85246  -3796967.48443  23305481.3204   23305479.1724         37.7504
        21.5004
  -5309043.09446  -4329616.24246  22826916.5004   22826912.0664         39.5004
        37.0004
  -1644515.66045  -1100136.50043  23824532.8134   23824532.8674         34.5004
        19.2504
 -20484103.59847 -15928686.64548  19821980.6724   19821979.0824         47.7504
        53.0004
 -11393368.90247  -8445955.40245  21383086.2424   21383082.0904         45.7504
        34.0004
 -16084415.78947 -11810562.27747  21655463.6484   21655462.2034         45.0004
        46.0004
  -3687654.16815                  23598107.836                          32.000

 21  2  1  2 31 30.0000000  0  7G23G31G24G25G12G10G20
  -5735715.41046  -3715142.74243  23325463.8594   23325462.2734         37.0004
        20.7504
  -5376914.82446  -4382503.30946  22814001.2344   22813996.0234         39.2504
        36.5004
  -1563122.75845  -1036713.51643  23840021.6414   23840020.7704         34.2504
        18.5004
 -20492720.58247 -15935401.16848  19820340.9614   19820339.5474         47.0004
        53.0004
 -11319672.68047  -8388529.77045  21397110.1094   21397106.2154         43.7504
        34.5004
 -16014149.55947 -11755809.39147  21668835.0314   21668833.4104         46.0004
        46.2504
  -3583369.633 5                  23617954.148                          30.250

 21  2  1  2 32  0.0000000  0  7G23G31G24G25G12G10G20
  -5630617.38345  -3633248.25443  23345463.5784   23345461.5944         34.7504
        19.2504
  -5444627.77046  -4435266.60946  22801114.7584   22801110.3054         40.0004
        37.0004
  -1481710.68045   -973275.55943  23855513.9614   23855513.7774         35.0004
        19.2504
 -20500741.34047 -15941651.09448  19818814.8204   19818813.1564         47.5004
        53.0004
 -11245560.09047  -8330779.72345  21411213.5474   21411209.3714         45.2504
        34.7504
 -15943462.36347 -11700728.46947  21682286.0944   21682285.4104         45.2504
        46.5004
  -3479071.62914                  23637799.945                          29.750

 21  2  1  2 32 30.0000000  0  7G23G31G24G25G12G10G20
  -5525432.82045  -3551286.28942  23365479.2734   23365477.7034         33.0004
        17.7504
  -5512181.76646  -4487906.04346  22788260.3524   22788256.5084         39.7504
        36.7504
  -1400279.38345   -909822.59443  23871010.0864   23871008.4614         33.5004
        18.2504
 -20508166.39147 -15947436.83648  19817401.4614   19817400.7704         47.5004
        53.0004
 -11171033.81647  -8272707.31245  21425395.5634   21425391.3134         44.7504
        34.2504
 -15872357.00847 -11645321.72747  21695817.4304   21695816.0314         45.5004
        46.0004
  -3374762.97315                  23657651.656                          30.750

 21  2  1  2 33  0.0000000  0  7G23G31G24G25G12G10G20
  -5420164.60945  -3469259.16843  23385511.0784   23385509.2114         33.7504
        18.2504
  -5579576.85946  -4540421.68046  22775435.1644   22775431.1724         39.5004
        37.5004
  -1318829.19945   -846354.92242  23886509.2584   23886507.3834         34.2504
        17.7504
 -20514996.14847 -15952758.71948  19816102.0164   19816100.3524         47.0004
        52.7504
 -11096096.31247  -8214314.44945  21439655.7974   21439651.2734         44.0004
        34.7504
 -15800836.31247 -11589591.31647  21709427.1024   21709425.4774         45.5004
        45.5004
                                  23677501.617                          28.500

 21  2  1  2 33 30.0000000  0  7G23G31G24G25G12G10G20
  -5314815.72345  -3387169.16042  23405558.4844   23405557.5004         33.0004
        15.5004
  -5646813.08646  -4592813.50846  22762641.1024   22762637.3984         38.5004
        37.5004
  -1237360.78545   -782873.09043  23902012.3594   23902010.8094         34.5004
        18.5004
 -20521231.19147 -15957617.19148  19814915.5164   19814913.9694         47.0004
        52.7504
 -11020750.02747  -8155603.06645  21453993.4774   21453988.9304         45.0004
        34.7504
 -15728903.14847 -11533539.50447  21723115.3914   21723113.9184         45.2504
        45.0004
  -3166125.80914                  23697351.125                          28.000

 21  2  1  2 34  0.0000000  0  7G23G31G24G25G12G10G20
                                  23425617.8754   23425619.2034         27.5004
        16.2504
  -5713890.39846  -4645081.46146  22749875.2584   22749873.2344         38.7504
        37.5004
  -1155873.59845   -719376.56642  23917518.9924   23917519.0204         32.7504
        16.7504
 -20526872.06647 -15962012.66048  19813842.0704   19813840.6524         47.7504
        53.0004
 -10944998.23047  -8096575.68445  21468408.8914   21468404.5314         45.0004
        34.5004
 -15656560.35547 -11477168.50447  21736881.7894   21736880.5434         44.5004
        45.5004
                                  23717204.852                          26.750

 21  2  1  2 34 30.0000000  0  7G23G31G24G25G12G10G20
                                  23445698.797                          30.000

  -5780808.84446  -4697225.66046  22737142.0004   22737138.5784         39.7504
        37.5004
  -1074368.94145   -655866.55142  23933028.8984   23933028.7114         33.5004
        17.2504
 -20531919.30947 -15965945.57448  19812881.5394   19812880.1844         47.7504
        53.0004
 -10868843.99247  -8037234.72745  21482900.0704   21482896.1884         45.0004
        34.0004
 -15583810.75447 -11420480.53147  21750725.7894   21750725.1684         43.5004
        45.2504
                                  23737053.602                          28.500

 21  2  1  2 35  0.0000000  0  7G23G31G24G25G12G10G20
  -4998315.04345  -3254585.44552  23465789.5944   23465784.3054         32.0004
        17.7504
  -5847568.82446  -4749246.43046  22724437.7344   22724433.4024         39.0004
        36.5004
   -992846.39545   -592342.56242  23948541.5554   23948541.8834         31.5004
        14.7504
 -20536373.51648 -15969416.37548  19812034.1024   19812032.2464         48.2504
        53.0004
 -10792289.59047  -7977581.95745  21497467.9224   21497464.1954         43.7504
        33.7504
 -15510657.24647 -11363477.83247  21764646.1644   21764645.0164         43.0004
        45.0004
                                  23756908.070                          29.000

 21  2  1  2 35 30.0000000  0  7G23G31G24G25G12G10G20
                                  23485890.188                          26.250

  -5914169.73046  -4801143.21146  22711763.9064   22711760.6174         39.5004
        37.5004
   -911306.70345   -528805.11342  23964059.5164   23964058.0394         31.7504
        16.2504
 -20540235.31248 -15972425.55548  19811299.1414   19811297.7234         48.2504
        53.0004
 -10715338.02347  -7917619.71945  21512111.1954   21512107.4224         44.7504
        32.5004
 -15437102.69947 -11306162.60247  21778643.6564   21778642.0354         45.5004
        45.2504
                                  23776757.414                          27.250

 21  2  1  2 36  0.0000000  0  6G31G24G25G12G10G20
  -5980611.77746  -4852916.24246  22699120.1724   22699116.4454         38.7504
        37.0004
   -829749.55145   -465254.18443  23979579.4774   23979577.9454         32.7504
        18.5004
 -20543505.30148 -15974973.58648  19810677.0864   19810675.4264         48.0004
        53.2504
 -10637991.73847  -7857349.90245  21526829.6644   21526826.4304         43.7504
        33.5004
 -15363150.04747 -11248537.18447  21792715.8754   21792715.1454         44.0004
        45.5004
                                  23796607.992                          29.500

 21  2  1  2 36 30.0000000  0  7G31G24G25G12G29G10G20
  -6046894.58646  -4904565.13746  22686507.0554   22686502.0514         39.5004
        36.0004
   -748175.88755   -401690.29352  23995101.7194   23995100.2774         33.2504
        16.2504
 -20546184.18447 -15977061.01648  19810167.1564   19810165.7584         47.0004
        53.0004
 -10560253.73847  -7796774.84845  21541623.2424   21541618.9224         44.0004
        33.2504
   -834894.54715                  24035596.563                          32.250

 -15288802.18047 -11190603.80547  21806863.8834   21806862.4184         44.2504
        44.7504
                                  23816450.633                          24.500

 21  2  1  2 37  0.0000000  0  7G31G24G25G12G29G10G20
  -6113018.80946  -4956090.50446  22673924.0394   22673920.1294         40.7504
        37.2504
   -666585.27045   -338113.18042  24010627.1484   24010626.4224         31.5004
        14.7504
 -20548272.62947 -15978688.36348  19809769.8204   19809768.1994         46.5004
        53.0004
 -10482126.87547  -7735896.78545  21556489.8674   21556485.7664         44.0004
        34.0004
   -929937.414 5                  24017511.578                          33.000

 -15214061.98047 -11132364.67647  21821086.9144   21821084.5864         44.0004
        44.7504
  -2435984.50814                  23836296.336                          27.500

 21  2  1  2 37 30.0000000  0  6G31G24G25G12G29G10
  -6178984.37546  -5007492.21946  22661371.4224   22661367.7424         40.2504
        37.5004
   -584978.30945   -274523.40242  24026156.3674   24026155.0594         31.0004
        12.5004
 -20549771.34047 -15979856.18048  19809484.5634   19809483.3794         47.0004
        53.0004
 -10403613.73047  -7674717.71945  21571431.2194   21571426.7194         43.7504
        33.7504
  -1024945.406 5                  23999430.844                          32.000

 -15138932.41047 -11073822.17247  21835383.1024   21835382.4494         44.2504
        44.7504
 21  2  1  2 38  0.0000000  0  6G31G24G25G12G29G10
  -6244791.00046  -5058770.08246  22648848.7584   22648844.7974         40.0004
        36.7504
   -503354.82455   -210920.73452  24041689.0784   24041689.2544         31.2504
        13.7504
 -20550681.09847 -15980565.07448  19809310.9844   19809309.9924         47.2504
        52.7504
 -10324717.41847  -7613240.10245  21586444.4384   21586440.1414         43.7504
        33.5004
  -1119915.070 5                  23981359.055                          32.000

 -15063416.42247 -11014978.56247  21849753.5944   21849753.1684         44.7504
        45.2504
 21  2  1  2 38 30.0000000  0  6G31G24G25G12G29G10
  -6310438.82846  -5109924.19946  22636355.8984   22636352.9454         40.2504
        37.2504
   -421715.63745   -147305.82442  24057224.5474   24057225.5514         31.5004
        16.2504
 -20551002.57047 -15980815.57048  19809250.0164   19809248.6844         47.5004
        53.0004
 -10245440.54747  -7551465.91845  21601530.0554   21601525.2424         43.2504
        33.5004
  -1214843.441 5                  23963293.953                          33.000

 -14987516.93447 -10955836.12147  21864196.5944   21864195.6334         43.7504
        44.2504
 21  2  1  2 39  0.0000000  0  6G31G24G25G12G29G10
  -6375927.75446  -5160954.50046  22623893.7734   22623890.3324         40.5004
        38.0004
   -340060.52345    -83678.53942  24072762.6024   24072762.8164         31.5004
        15.5004
 -20550736.59447 -15980608.30948  19809300.7034   19809299.4534         46.5004
        53.0004
 -10165786.02347  -7489397.46945  21616688.3594   21616683.4384         44.7504
        33.7504
  -1309727.070 5                  23945238.133                          32.000

 -14911236.92247 -10896397.16847  21878712.3204   21878711.3834         43.5004
        44.5004
 21  2  1  2 39 30.0000000  0  6G31G24G25G12G29G10
  -6441258.02046  -5211861.13346  22611462.0164   22611458.8484         40.2504
        38.5004
   -258389.76645    -20039.03142  24088305.1174   24088305.0004         31.7504
        14.7504
 -20549883.96547 -15979943.91448  19809463.1884   19809461.6844         46.5004
        53.0004
 -10085756.34847  -7427036.70745  21631916.8204   21631913.0314         43.0004
        33.5004
  -1404563.441 5                  23927192.992                          33.750

 -14834579.34847 -10836664.00047  21893299.9774   21893298.9844         44.2504
        44.5004
 21  2  1  2 40  0.0000000  0  6G31G24G25G12G29G10
  -6506429.44146  -5262644.07046  22599060.4384   22599056.3634         40.5004
        37.5004
   -176703.70745     43612.41442  24103848.4454   24103850.3444         32.0004
        16.2504
 -20548445.52047 -15978823.03948  19809736.6484   19809735.2504         46.0004
        53.0004
 -10005354.27747  -7364385.74645  21647217.7114   21647213.0554         44.7504
        32.7504
  -1499349.027 5                  23909154.508                          31.500

 -14757547.17647 -10776638.95747  21907958.5394   21907957.5824         44.0004
        44.0004
 21  2  1  2 40 30.0000000  0  6G31G24G25G12G29G10
  -6571442.08646  -5313303.23846  22586689.4924   22586686.1454         40.0004
        38.0004
    -95002.62545    107275.55142  24119396.4384   24119397.5084         31.5004
        16.7504
 -20546422.05948 -15977246.31248  19810121.3834   19810120.4924         48.0004
        53.0004
  -9924582.87147  -7301446.98845  21662586.9064   21662582.7274         43.5004
        33.5004
                                  23891123.906                          27.250

 -14680143.38347 -10716324.33647  21922688.2034   21922686.8674         44.2504
        44.0004
 21  2  1  2 41  0.0000000  0  7G23G31G24G25G12G29G10
    160028.85915                  23707728.547                          32.750

  -6636295.89146  -5363838.62146  22574347.6094   22574343.9384         41.2504
        37.2504
                                  24134946.9384   24134946.5634         31.5004
        15.5004
 -20543814.48447 -15975214.42648  19810617.9844   19810616.9064         47.2504
        53.0004
  -9843445.07447  -7238222.75845  21678027.8674   21678023.5204         43.5004
        33.5004
                                  23873110.438                          31.000

 -14602371.01247 -10655722.51247  21937487.6804   21937485.7034         43.7504
        44.2504
 21  2  1  2 41 30.0000000  0  7G23G31G24G25G12G29G10
    266267.375 4                  23727943.391                          29.000

  -6700990.80146  -5414250.23846  22562036.9304   22562032.0474         41.2504
        37.0004
     68443.84855    234636.38352  24150499.8524   24150498.8284         31.5004
        15.5004
 -20540623.68447 -15972728.07848  19811224.7894   19811224.1844         47.2504
        53.0004
  -9761943.70347  -7174715.19145  21693536.4614   21693532.3914         43.5004
        33.0004
  -1783370.559 5                  23855106.828                          31.250

 -14524233.10947 -10594835.84447  21952356.9614   21952355.5784         43.2504
        43.7504
 21  2  1  2 42  0.0000000  0  7G23G31G24G25G12G29G10
                                  23748165.969                          28.250

  -6765527.14846  -5464538.26646  22549755.4304   22549751.3524         40.5004
        37.0004
    150189.33255    298334.13753  24166055.5944   24166054.1094         30.7504
        18.2504
 -20536850.57848 -15969787.99248  19811942.8594   19811941.8364         48.5004
        53.0004
  -9680081.16047  -7110926.23045  21709114.5234   21709110.2384         42.2504
        32.0004
                                  23837113.992                          29.250

 -14445732.56247 -10533666.62147  21967295.0314   21967294.3164         43.0004
        44.0004
 21  2  1  2 42 30.0000000  0  7G23G31G24G25G12G29G10
    478834.05514                  23768392.914                          29.750

  -6829904.85546  -5514702.69146  22537504.5704   22537501.9804         41.0004
        38.2504
    231948.62955    362042.58253  24181613.2974   24181613.2034         32.2504
        18.2504
 -20532496.11348 -15966394.89548  19812771.6884   19812770.1214         48.5004
        52.7504
  -9597860.25447  -7046857.99645  21724760.9844   21724756.1054         42.5004
        32.5004
  -1972407.86755     -6470.42653  23819134.5944   23819133.1644         30.5004
        18.5004
 -14366872.45347 -10472217.20347  21982301.8834   21982301.3634         42.5004
        44.2504
 21  2  1  2 43  0.0000000  0  7G23G31G24G25G12G29G10
    585156.328 5                  23788628.727                          33.000

  -6894123.65246  -5564743.25846  22525285.0084   22525280.8484         39.7504
        37.7504
    313722.66445    425762.63342  24197174.7504   24197174.5634         33.2504
        17.7504
 -20527561.21148 -15962549.50048  19813711.0394   19813709.7034         48.0004
        52.5004
  -9515284.41047  -6982513.19145  21740474.0314   21740469.9774         42.5004
        32.0004
  -2066824.23845    -80041.50042  23801168.2034   23801165.9494         32.2504
        16.2504
 -14287655.85247 -10410490.00447  21997376.3134   21997375.8324         43.5004
        45.0004
 21  2  1  2 43 30.0000000  0  7G23G31G24G25G12G29G10
    691500.863 5                  23808865.617                          33.500

  -6958183.66046  -5614660.15646  22513094.5004   22513090.1844         41.2504
        38.7504
                                  24212737.3054   24212737.4064         30.0004
        17.2504
 -20522046.87948 -15958252.60248  19814760.2664   19814758.5234         48.5004
        52.7504
  -9432355.67647  -6917893.41445  21756255.1804   21756250.9304         43.5004
        32.5004
  -2161167.90645   -153555.95342  23783213.9844   23783212.3794         30.5004
        15.5004
 -14208085.80147 -10348487.38347  22012517.5474   22012516.8554         43.2504
        44.0004
 21  2  1  2 44  0.0000000  0  7G23G31G24G25G12G29G10
                                  23829103.773                          31.000

  -7022085.07446  -5664453.41446  22500933.8134   22500930.6134         39.5004
        37.5004
    477312.23445    553234.89142  24228304.4614   24228305.2584         31.0004
        17.2504
 -20515954.15648 -15953505.00448  19815919.6804   19815918.0704         48.2504
        52.7504
  -9349077.51247  -6853001.32045  21772102.5314   21772098.5864         43.2504
        33.0004
  -2255435.58645   -227011.19942  23765275.6484   23765273.6174         34.2504
        17.7504
 -14128165.32047 -10286211.69547  22027725.5234   22027724.0664         42.7504
        42.5004
 21  2  1  2 44 30.0000000  0  7G23G31G24G25G12G29G10
                                  23849348.141                          29.000

  -7085827.96947  -5714123.21146  22488805.3284   22488800.6094         42.0004
        39.0004
    559127.43845    616986.98042  24243873.4384   24243874.2934         31.2504
        17.2504
 -20509284.04348 -15948307.49648  19817189.0394   19817187.4494         48.2504
        53.0004
  -9265452.77047  -6787839.20745  21788015.6564   21788011.5234         43.0004
        32.2504
  -2349624.41845   -300405.02742  23747351.3054   23747349.4064         32.2504
        17.7504
 -14047897.41447 -10223665.30147  22043000.4384   22042999.3914         42.0004
        42.5004
 21  2  1  2 45  0.0000000  0  6G31G24G25G12G29G10
  -7149411.82446  -5763669.05946  22476705.3284   22476701.2664         40.7504
        38.0004
    640955.99644    680749.45742  24259443.7194   24259445.4574         29.5004
        16.2504
 -20502037.54748 -15942660.85948  19818567.8834   19818566.4144         48.5004
        53.0004
  -9181483.54747  -6722408.66045  21803994.2974   21803990.3714         43.5004
        32.5004
  -2443731.39145   -373735.03142  23729442.6564   23729440.9304         32.7504
        17.7504
 -13967285.22347 -10160850.62547  22058340.5554   22058339.5594         42.5004
        42.5004
 21  2  1  2 45 30.0000000  0  6G31G24G25G12G29G10
  -7212836.99646  -5813091.24646  22464635.5704   22464630.9654         40.0004
        37.5004
    722797.99645    744522.36742  24275020.1724   24275019.8204         32.5004
        16.2504
 -20494215.84848 -15936565.99648  19820056.1884   19820054.7034         48.2504
        53.0004
  -9097173.33647  -6656712.36345  21820038.6254   21820033.6724         43.5004
        32.5004
  -2537753.00445   -446998.54343  23711552.7194   23711549.8244         35.0004
        19.0004
 -13886331.81647 -10097770.07447  22073745.3594   22073744.2154         43.0004
        44.0004
 21  2  1  2 46  0.0000000  0  6G31G24G25G12G29G10
  -7276103.31246  -5862389.66046  22452596.9064   22452591.6684         41.2504
        38.5004
    804652.85245    808305.27042  24290596.7664   24290596.9264         31.2504
        16.2504
 -20485819.92648 -15930023.71548  19821653.6174   19821652.3714         48.0004
        52.7504
  -9012524.13347  -6590751.97345  21836146.1954   21836143.2584         43.5004
        31.7504
  -2631686.12146   -520193.12543  23693677.8754   23693674.9494         36.5004
        19.5004
 -13805040.24647 -10034426.02347  22089215.3754   22089214.5864         43.5004
        44.0004
 21  2  1  2 46 30.0000000  0  6G31G24G25G12G29G10
  -7339211.08646  -5911564.53946  22440587.4224   22440583.0554         41.0004
        38.5004
    886520.539 4                  24306176.133                          29.250

 -20476850.98048 -15923034.91048  19823360.8054   19823359.1054         48.0004
        52.7504
  -8927539.92247  -6524530.53145  21852318.7194   21852314.3524         44.0004
        32.5004
  -2725528.03945   -593316.61343  23675819.1884   23675816.0594         34.7504
        20.2504
 -13723413.65647  -9970820.89547  22104747.6804   22104747.4024         43.0004
        43.5004
 21  2  1  2 47  0.0000000  0  6G31G24G25G12G29G10
  -7402160.00446  -5960615.59446  22428608.3914   22428604.7734         39.7504
        37.2504
                                  24321753.977                          25.750

 -20467310.08648 -15915600.43048  19825176.1644   19825174.8404         48.5004
        52.7504
  -8842223.03147  -6458049.85245  21868553.6094   21868549.6644         43.0004
        31.5004
  -2819275.21945   -666366.29343  23657980.2114   23657976.4734         33.7504
        21.2504
 -13641455.05947  -9906957.08247  22120343.5704   22120343.4024         42.5004
        43.5004
 21  2  1  2 47 30.0000000  0  6G31G24G25G12G29G10
  -7464950.33646  -6009543.10546  22416660.0554   22416655.5704         40.0004
        38.7504
                                  24337339.766                          28.250

 -20457198.46547 -15907721.22748  19827100.0004   19827098.7194         47.5004
        52.7504
  -8756576.05947  -6391311.95745  21884851.5864   21884847.5554         42.7504
        31.5004
  -2912924.43746   -739339.67643  23640159.8984   23640156.5044         38.0004
        21.5004
 -13559167.60247  -9842837.01647  22136002.8834   22136002.0704         42.5004
        43.7504
 21  2  1  2 48  0.0000000  0  6G31G24G25G12G29G10
  -7527582.21946  -6058347.14146  22404740.8594   22404737.0514         40.5004
        38.7504
                                  24352925.211                          26.750

 -20446517.21548 -15899398.16448  19829132.7344   19829131.0084         48.2504
        52.7504
  -8670601.97347  -6324319.16045  21901212.3674   21901207.8954         43.0004
        31.5004
  -3006472.62946   -812234.26643  23622357.1644   23622355.1374         36.0004
        20.7504
 -13476554.40646  -9778463.14547  22151723.1414   22151722.7464         41.5004
        42.0004
 21  2  1  2 48 30.0000000  0  6G31G24G25G12G29G10
  -7590055.20746  -6107027.34446  22392852.1174   22392849.2424         39.5004
        38.0004
                                  24368514.914                          26.250

 -20435267.59848 -15890632.23048  19831273.9614   19831272.2304         48.5004
        52.7504
  -8584303.66847  -6257073.75445  21917634.2974   21917630.4264         44.5004
        32.2504
  -3099916.54745   -885047.63743  23604575.5164   23604572.5784         32.5004
        19.0004
 -13393618.52347  -9713837.82047  22167505.5554   22167504.5554         43.0004
        42.0004
 21  2  1  2 49  0.0000000  0  6G31G24G25G12G29G10
  -7652369.52046  -6155583.90646  22380995.0164   22380991.2854         40.5004
        39.2504
                                  24384105.133                          27.500

 -20423450.81248 -15881424.34048  19833522.0084   19833520.5634         48.2504
        52.7504
  -8497683.77347  -6189577.73845  21934117.5634   21934113.1024         43.2504
        30.5004
  -3193253.02045   -957777.33243  23586813.8984   23586810.2974         34.7504
        19.7504
 -13310363.15247  -9648963.52347  22183349.1094   22183347.5984         42.7504
        42.2504
 21  2  1  2 49 30.0000000  0  5G31G25G12G29G10
  -7714525.27046  -6204016.94946  22369166.8134   22369162.5234         40.2504
        38.7504
 -20411068.11347 -15871775.47348  19835878.2974   19835877.5664         47.5004
        52.7504
  -8410745.29747  -6121833.48045  21950660.9224   21950657.3054         42.7504
        31.2504
  -3286478.67646  -1030420.64143  23569074.3444   23569070.1524         37.5004
        20.0004
 -13226791.37947  -9583842.65247  22199252.2814   22199251.1454         43.0004
        42.2504
 21  2  1  2 50  0.0000000  0  5G31G25G12G29G10
  -7776522.29346  -6252326.26646  22357369.4844   22357364.8484         40.5004
        38.5004
 -20398120.74248 -15861686.60948  19838342.4924   19838340.5124         48.7504
        52.7504
  -8323490.92247  -6053843.07045  21967265.3834   21967261.4614         43.0004
        31.5004
  -3379590.56245  -1102975.32043  23551355.4064   23551351.5124         34.7504
        20.2504
 -13142906.31247  -9518477.69947  22215214.8134   22215214.7544         42.0004
        42.5004
 21  2  1  2 50 30.0000000  0  5G31G25G12G29G10
  -7838360.68446  -6300512.00446  22345601.5004   22345598.0434         40.7504
        39.5004
 -20384609.96947 -15851158.73448  19840913.4614   19840912.1604         47.7504
        53.0004
  -8235923.38747  -5985608.63745  21983929.0554   21983924.9574         42.2504
        31.5004
  -3472585.44545  -1175438.86743  23533658.4384   23533656.0864         34.7504
        21.7504
 -13058711.11346  -9452871.08646  22231236.2974   22231235.6094         41.7504
        41.5004
 21  2  1  2 51  0.0000000  0  5G31G25G12G29G10
  -7900040.53146  -6348574.17246  22333864.5234   22333859.9804         41.2504
        39.7504
 -20370537.11348 -15840192.85948  19843591.0394   19843590.0474         48.0004
        53.0004
  -8148045.64547  -5917132.50845  22000651.4774   22000647.2774         43.0004
        31.5004
  -3565459.66445  -1247808.39543  23515984.6804   23515982.9184         34.0004
        22.5004
 -12974208.97746  -9387025.30546  22247316.4064   22247316.1174         41.2504
        41.7504
 21  2  1  2 51 30.0000000  0  5G31G25G12G29G10
  -7961561.53146  -6396512.56246  22322157.7344   22322153.7504         41.2504
        39.7504
 -20355903.48048 -15828790.02048  19846376.3054   19846374.9064         48.0004
        52.7504
  -8059860.58247  -5848416.88345  22017431.9924   22017428.0234         42.7504
        30.5004
  -3658210.77045  -1320081.92243  23498335.1484   23498333.3874         33.2504
        21.5004
 -12889403.04346  -9320942.75847  22263454.7974   22263454.9104         41.5004
        42.5004
 21  2  1  2 52  0.0000000  0  5G31G25G12G29G10
  -8022923.65646  -6444327.19946  22310480.7344   22310476.0274         40.5004
        39.0004
 -20340710.43748 -15816951.28148  19849267.2344   19849266.0124         48.2504
        52.5004
  -7971371.14147  -5779464.06645  22034271.8914   22034266.7154         42.7504
        30.5004
  -3750835.20746  -1392256.78943  23480710.1174   23480706.4184         37.2504
        22.2504
 -12804296.39146  -9254625.90247  22279649.9454   22279649.9694         41.7504
        42.5004
 21  2  1  2 52 30.0000000  0  5G31G25G12G29G10
  -8084127.07046  -6492018.14546  22298834.3134   22298829.5984         41.7504
        39.5004
 -20324959.32447 -15804677.68448  19852264.7194   19852263.3984         46.5004
        52.5004
  -7882579.73447  -5710275.96145  22051167.9224   22051163.3984         43.0004
        30.7504
  -3843329.75045  -1464330.43443  23463107.9844   23463105.3164         35.2504
        22.5004
 -12718892.25046  -9188077.25446  22295902.2274   22295901.5864         41.2504
        41.5004
 21  2  1  2 53  0.0000000  0  5G31G25G12G29G10
  -8145172.01646  -6539585.61746  22287218.0164   22287213.8594         41.5004
        40.7504
 -20308651.55547 -15791970.31248  19855367.8284   19855366.5944         47.7504
        52.7504
  -7793489.55147  -5640855.07045  22068121.5234   22068117.0824         43.2504
        30.2504
  -3935691.35946  -1536300.49644  23445532.5944   23445529.7194         37.7504
        24.7504
 -12633193.74646  -9121299.23447  22312209.7274   22312208.8594         41.5004
        42.0004
 21  2  1  2 53 30.0000000  0  6G31G24G25G12G29G10
  -8206058.37946  -6587029.50846  22275630.8364   22275627.1174         41.2504
        40.0004
    434095.61715                  24524523.242                          31.000

 -20291788.48047 -15778830.25848  19858576.8364   19858574.8594         47.0004
        52.7504
  -7704103.19947  -5571203.36744  22085130.7424   22085125.9144         43.0004
        29.0004
  -4027916.66846  -1608164.35244  23427982.5474   23427979.8324         38.5004
        25.2504
 -12547204.08646  -9054294.32846  22328573.4534   22328573.3014         40.5004
        41.5004
 21  2  1  2 54  0.0000000  0  6G31G24G25G12G29G10
  -8266786.16046  -6634349.84046  22264075.1094   22264070.9614         41.7504
        40.5004
    516139.55514                  24540133.531                          27.250

 -20274371.53547 -15765258.59848  19861891.1024   19861889.8524         47.2504
        52.5004
  -7614423.44547  -5501323.04345  22102196.4064   22102191.8714         43.0004
        30.2504
  -4120002.19546  -1679919.25444  23410460.0394   23410456.4734         38.7504
        27.5004
 -12460926.41446  -8987065.01247  22344991.5164   22344990.9224         41.5004
        42.2504
 21  2  1  2 54 30.0000000  0  5G31G25G12G29G10
  -8327355.18446  -6681546.45746  22252548.8674   22252545.8674         41.7504
        40.2504
 -20256402.21947 -15751256.53548  19865310.3984   19865308.7464         46.5004
        52.5004
  -7524453.09047  -5431216.27745  22119316.9694   22119312.3204         42.0004
        30.2504
  -4211945.06246  -1751563.00444  23392963.3444   23392960.3554         39.2504
        25.5004
 -12374363.94546  -8919613.75046  22361463.9064   22361462.6844         41.5004
        41.0004
 21  2  1  2 55  0.0000000  0  5G31G25G12G29G10
  -8387765.52347  -6728619.42646  22241053.7424   22241048.8054         42.0004
        40.0004
 -20237881.89847 -15736825.09448  19868834.9304   19868833.1484         46.5004
        52.5004
  -7434195.00847  -5360885.31645  22136491.9924   22136488.7194         42.5004
        30.7504
  -4303741.75846  -1823092.84044  23375494.8444   23375491.7114         38.2504
        25.5004
 -12287519.83246  -8851943.05146  22377989.0864   22377988.8134         39.7504
        40.0004
 21  2  1  2 55 30.0000000  0  5G31G25G12G29G10
  -8448017.23847  -6775568.79746  22229587.8984   22229583.7974         42.0004
        40.5004
 -20218812.10548 -15721965.51248  19872463.8444   19872462.2074         48.2504
        52.7504
  -7343651.96547  -5290332.32045  22153722.8284   22153718.5514         42.5004
        30.5004
  -4395389.55546  -1894506.66044  23358053.7974   23358052.3524         37.7504
        26.0004
 -12200397.28946  -8784055.37946  22394568.2584   22394567.5984         40.7504
        40.5004
 21  2  1  2 56  0.0000000  0  5G31G25G12G29G10
  -8508110.15246  -6822394.42246  22218152.7114   22218149.4734         40.5004
        40.5004
 -20199194.33648 -15706678.93048  19876196.7034   19876195.3244         48.0004
        52.7504
  -7252826.77747  -5219559.44945  22171006.0554   22171001.8634         42.2504
        31.2504
  -4486884.69946  -1965801.55544  23340644.3984   23340640.7464         36.5004
        25.5004
 -12112999.48047  -8715953.22746  22411199.7664   22411199.1994         42.0004
        41.5004
 21  2  1  2 56 30.0000000  0  5G31G25G12G29G10
  -8568044.37146  -6869096.38346  22206747.3594   22206743.5864         41.2504
        40.5004
 -20179030.06647 -15690966.50448  19880033.8444   19880032.2854         47.0004
        52.5004
  -7161722.16047  -5148568.85545  22188342.5704   22188338.3524         42.0004
        30.0004
  -4578224.10546  -2036975.07044  23323262.9064   23323259.3794         37.0004
        25.5004
 -12025329.67647  -8647639.11346  22427882.8284   22427882.6684         42.7504
        41.5004
 21  2  1  2 57  0.0000000  0  5G31G25G12G29G10
  -8627819.78546  -6915674.62146  22195372.6724   22195368.2074         41.7504
        40.5004
 -20158320.84847 -15674829.44948  19883974.6884   19883973.1214         46.7504
        52.7504
  -7070341.19947  -5077362.93444  22205732.3754   22205727.6994         42.2504
        29.5004
  -4669404.57446  -2108024.74644  23305911.8284   23305908.6214         37.5004
        25.5004
 -11937390.95346  -8579115.46946  22444617.1884   22444616.2624         41.0004
        41.2504
 21  2  1  2 57 30.0000000  0  5G31G25G12G29G10
  -8687436.34846  -6962129.05146  22184028.1484   22184024.1524         40.5004
        40.5004
 -20137068.25047 -15658268.97748  19888019.2894   19888017.2734         47.7504
        52.7504
  -6978686.41046  -5005943.62544  22223173.0164   22223168.3324         41.2504
        29.2504
  -4760422.95746  -2178948.11744  23288591.6724   23288588.2624         37.7504
        26.0004
 -11849186.53146  -8510384.79746  22461401.8834   22461400.9884         41.2504
        41.0004
 21  2  1  2 58  0.0000000  0  5G31G25G12G29G10
  -8746894.48846  -7008460.05146  22172713.4534   22172709.0634         40.5004
        40.5004
 -20115273.78547 -15641286.27048  19892166.5314   19892165.0124         46.5004
        52.7504
  -6886760.41446  -4934312.98844  22240666.3524   22240661.6174         41.2504
        29.2504
  -4851275.98845  -2249742.63743  23271302.1804   23271299.3714         35.7504
        22.7504
 -11760719.70746  -8441449.64846  22478236.1804   22478235.8324         40.7504
        40.0004
 21  2  1  2 58 30.0000000  0  5G31G25G12G29G10
  -8806193.71546  -7054667.22746  22161429.1254   22161425.5784         41.0004
        40.5004
 -20092939.09447 -15623882.60948  19896416.7194   19896414.8874         46.2504
        52.7504
  -6794566.32847  -4862473.46544  22258210.1414   22258205.5314         42.0004
        29.7504
  -4941960.46946  -2320405.80544  23254045.5004   23254042.0554         36.5004
        25.0004
 -11671993.63746  -8372312.48046  22495120.4534   22495119.8244         40.2504
        40.0004
 21  2  1  2 59  0.0000000  0  5G31G25G12G29G10
  -8865333.95746  -7100750.51246  22150174.7424   22150171.3094         40.5004
        40.7504
 -20070065.77347 -15606059.22748  19900769.2034   19900767.4414         47.5004
        52.5004
  -6702106.80147  -4790427.10544  22275804.5084   22275800.2624         42.0004
        28.7504
  -5032473.02346  -2390935.00444  23236821.9534   23236818.5514         38.5004
        25.5004
 -11583011.53547  -8302975.77346  22512053.5084   22512053.4884         42.5004
        41.0004
 21  2  1  2 59 30.0000000  0  5G31G25G12G29G10
  -8924315.48846  -7146710.12946  22138951.0864   22138947.1374         41.7504
        40.5004
 -20046655.41047 -15587817.39148  19905223.9144   19905222.8714         47.5004
        52.7504
  -6609384.87546  -4718176.25844  22293448.4844   22293444.4964         40.7504
        28.5004
  -5122810.67246  -2461327.93044  23219629.8834   23219628.0084         37.2504
        25.0004
 -11493776.59447  -8233442.10246  22529034.0394   22529033.9184         42.2504
        40.7504
 21  2  1  3  0  0.0000000  0  5G31G25G12G29G10
  -8983138.37547  -7192546.10246  22127757.3364   22127753.7814         42.0004
        41.0004
 -20022709.65647 -15569158.34448  19909780.5474   19909779.0354         47.5004
        52.5004
  -6516402.68446  -4645722.61345  22311143.1644   22311138.6994         41.5004
        30.5004
  -5212969.82846  -2531581.76244  23202474.1644   23202470.6484         39.0004
        25.0004
 -11404292.10246  -8163713.96546  22546062.2734   22546060.7544         40.2504
        39.7504
 21  2  1  3  0 30.0000000  0  5G31G25G12G29G10
  -9041802.41046  -7238258.30547  22116594.2194   22116590.6024         41.0004
        42.0004
 -19998230.18047 -15550083.41848  19914439.0314   19914437.2934         47.5004
        52.7504
  -6423163.41047  -4573068.67244  22328885.2504   22328881.6454         42.0004
        29.5004
  -5302947.45346  -2601694.15644  23185351.8914   23185348.3484         38.7504
        24.2504
 -11314561.24247  -8093793.85246  22563138.0944   22563136.9344         42.0004
        40.0004
 21  2  1  3  1  0.0000000  0  6G23G31G25G12G29G10
                                  24515633.219                          31.750

  -9100307.43447  -7283846.61746  22105461.2894   22105457.1294         42.5004
        41.7504
 -19973218.63347 -15530593.90248  19919198.3284   19919196.6844         47.7504
        52.5004
  -6329669.84847  -4500216.55944  22346677.2814   22346672.8674         42.0004
        29.0004
  -5392740.38346  -2671662.63744  23168264.4614   23168261.2734         38.2504
        26.7504
 -11224587.19947  -8023684.23846  22580260.2814   22580258.6994         42.2504
        40.5004
 21  2  1  3  1 30.0000000  0  6G23G31G25G12G29G10
                                  24535663.242                          28.000

  -9158653.56247  -7329311.08646  22094358.3134   22094354.5594         42.2504
        41.7504
 -19947676.73848 -15510691.10948  19924058.7584   19924057.3244         48.5004
        52.5004
  -6235924.78946  -4427168.49644  22364516.1024   22364511.9694         39.7504
        28.5004
  -5482345.37946  -2741484.63344  23151213.9064   23151210.2624         37.5004
        26.5004
 -11134373.22746  -7953387.66846  22597426.4304   22597425.7544         40.5004
        39.0004
 21  2  1  3  2  0.0000000  0  6G23G31G25G12G29G10
                                  24555682.703                          26.250

  -9216840.60247  -7374651.62946  22083285.7194   22083281.5944         43.2504
        41.5004
 -19921606.16048 -15490376.37548  19929020.3834   19929018.3914         48.0004
        52.5004
  -6141931.02047  -4353926.60944  22382402.4064   22382398.3324         42.0004
        29.7504
  -5571758.93046  -2811157.48444  23134198.7814   23134195.6914         40.2504
        27.5004
 -11043922.50046  -7882906.61346  22614637.9304   22614638.3954         40.0004
        39.7504
 21  2  1  3  2 30.0000000  0  5G31G25G12G29G10
  -9274868.66046  -7419868.28146  22072243.3364   22072238.5394         41.2504
        41.0004
 -19895008.63348 -15469651.02348  19934081.1884   19934079.8714         48.0004
        52.5004
  -6047690.68046  -4280492.57844  22400335.7274   22400331.6414         41.0004
        28.5004
  -5660977.94546  -2880678.77744  23117221.3914   23117217.4964         39.0004
        28.7504
 -10953238.30946  -7812243.66046  22631895.0554   22631894.8714         39.5004
        39.0004
 21  2  1  3  3  0.0000000  0  5G31G25G12G29G10
  -9332737.80146  -7464961.08646  22061231.2584   22061226.4494         41.5004
        41.2504
 -19867885.87947 -15448516.40248  19939242.6724   19939241.3634         47.5004
        52.5004
  -5953207.15246  -4206869.09044  22418314.5474   22418311.3164         40.5004
        28.5004
  -5749999.27746  -2950046.04744  23100280.7274   23100277.2734         39.0004
        28.0004
 -10862323.87546  -7741401.27746  22649195.8134   22649195.2734         39.5004
        39.5004
 21  2  1  3  3 30.0000000  0  5G31G25G12G29G10
  -9390447.68746  -7509929.79346  22050249.0394   22050245.4494         40.7504
        41.7504
 -19840239.69547 -15426973.91848  19944503.4144   19944502.1054         47.5004
        52.5004
  -5858483.14846  -4133058.19944  22436340.5474   22436336.8554         40.0004
        28.5004
  -5838819.53546  -3019256.58244  23083378.8674   23083375.9654         38.5004
        27.2504
 -10771182.48846  -7670382.04346  22666539.1334   22666538.8094         40.2504
        39.5004
 21  2  1  3  4  0.0000000  0  5G31G25G12G29G10
  -9447998.66446  -7554774.69547  22039297.5944   22039294.0594         41.0004
        42.0004
 -19812071.78147 -15405024.88348  19949863.7734   19949862.3014         47.7504
        52.5004
  -5763521.49246  -4059062.10244  22454411.2974   22454407.4964         41.2504
        28.5004
  -5927435.49746  -3088307.92544  23066515.9844   23066512.3244         38.2504
        26.0004
 -10679817.26246  -7599188.36346  22683925.2504   22683925.0354         39.2504
        38.7504
 21  2  1  3  4 30.0000000  0  5G31G25G12G29G10
  -9505390.50447  -7599495.56646  22028376.9064   22028372.0594         42.5004
        41.7504
 -19783383.99647 -15382670.75448  19955322.7974   19955321.5744         47.5004
        52.5004
  -5668324.28547  -3984882.48444  22472527.5004   22472523.1374         42.5004
        29.5004
  -6015843.93446  -3157197.58244  23049691.7664   23049688.6414         38.0004
        26.7504
 -10588231.48446  -7527822.85546  22701353.8364   22701353.4224         38.2504
        39.0004
 21  2  1  3  5  0.0000000  0  5G31G25G12G29G10
  -9562623.30546  -7644092.53546  22017484.7114   22017480.7234         41.2504
        40.7504
 -19754178.06647 -15359912.87948  19960880.4614   19960878.7304         47.2504
        52.2504
  -5572894.53547  -3910521.64144  22490686.6884   22490682.1054         42.2504
        28.0004
  -6104041.86346  -3225923.20344  23032908.1954   23032904.5704         38.2504
        27.5004
 -10496428.35946  -7456288.04346  22718824.1254   22718823.0314         40.2504
        39.5004
 21  2  1  3  5 30.0000000  0  5G31G25G12G29G10
  -9619696.96546  -7688565.46946  22006624.0394   22006620.5434         41.2504
        41.5004
 -19724455.85248 -15336752.71148  19966536.8284   19966534.7934         48.0004
        52.2504
  -5477235.12947  -3835981.86744  22508890.0554   22508885.7074         42.0004
        28.0004
  -6192025.80146  -3294482.06644  23016165.2114   23016161.9694         38.5004
        24.7504
 -10404411.16046  -7384586.37146  22736334.2814   22736333.2974         41.0004
        39.7504
 21  2  1  3  6  0.0000000  0  5G31G25G12G29G10
  -9676611.24647  -7732914.23446  21995794.0084   21995789.7734         42.0004
        41.5004
 -19694219.16447 -15313191.65248  19972290.1804   19972288.9144         46.7504
        52.2504
  -5381348.81247  -3761265.24644  22527137.3444   22527132.3054         42.7504
        29.0004
  -6279792.53946  -3362871.69144  22999463.9844   22999460.8444         38.5004
        26.2504
 -10312183.15646  -7312720.43046  22753884.3834   22753883.3284         39.7504
        39.7504
 21  2  1  3  6 30.0000000  0  5G31G25G12G29G10
  -9733366.30547  -7777138.91446  21984993.8054   21984989.1254         42.5004
        41.0004
 -19663469.87147 -15289231.16048  19978141.8594   19978140.4534         46.7504
        52.2504
  -5285238.42247  -3686374.07044  22545426.2664   22545422.5634         43.0004
        28.7504
  -6367338.77346  -3431089.53144  22982805.6334   22982801.0904         38.7504
        28.0004
 -10219747.52046  -7240692.70746  22771473.8204   22771472.9924         39.5004
        38.7504
 21  2  1  3  7  0.0000000  0  5G31G25G12G29G10
  -9789961.91046  -7821239.37546  21974223.9614   21974219.8484         41.5004
        41.2504
 -19632209.82847 -15264872.67648  19984090.3594   19984089.0004         47.0004
        52.5004
  -5188906.42246  -3611310.19944  22563757.5004   22563754.0554         41.7504
        28.0004
  -6454661.32046  -3499133.02744  22966187.9924   22966184.6214         38.2504
        26.7504
 -10127107.50046  -7168505.71146  22789102.8984   22789102.2424         39.2504
        38.2504
 21  2  1  3  7 30.0000000  0  5G31G25G12G29G10
  -9846398.18446  -7865215.67246  21963484.9224   21963480.2544         41.0004
        41.0004
 -19600440.84047 -15240117.62148  19990135.6334   19990133.9414         47.5004
        52.2504
  -5092355.15246  -3536075.45744  22582130.5004   22582126.4654         41.2504
        28.5004
  -6541756.87946  -3566999.66044  22949613.1024   22949610.7934         38.5004
        27.2504
 -10034266.34046  -7096161.96146  22806770.9924   22806769.7624         39.2504
        38.5004
 21  2  1  3  8  0.0000000  0  5G31G25G12G29G10
  -9902674.96947  -7909067.66846  21952775.5554   21952770.7544         42.0004
        41.0004
 -19568164.88347 -15214967.52348  19996277.7894   19996276.0554         47.0004
        52.0004
  -4995587.60546  -3460672.18044  22600544.7344   22600540.8204         41.5004
        27.7504
  -6628622.44546  -3634687.05944  22933084.0474   22933081.1334         39.0004
        28.0004
  -9941227.31246  -7023664.06646  22824474.8674   22824474.4264         39.2504
        37.0004
 21  2  1  3  8 30.0000000  0  5G31G25G12G29G10
  -9958792.27346  -7952795.40246  21942096.4224   21942092.2074         41.7504
        41.7504
 -19535383.79347 -15189423.81248  20002515.7274   20002514.1684         47.5004
        52.2504
  -4898606.63346  -3385102.61744  22618999.5634   22618995.5824         41.0004
        29.0004
  -6715254.61746  -3702192.60944  22916598.2664   22916595.1764         39.7504
        29.0004
  -9847993.55946  -6951014.43046  22842216.1724   22842216.3364         39.2504
        36.5004
 21  2  1  3  9  0.0000000  0  5G31G25G12G29G10
 -10014749.91047  -7996398.70747  21931447.9454   21931444.0084         42.2504
        42.2504
 -19502099.53947 -15163488.02748  20008849.6644   20008848.1484         47.5004
        52.2504
  -4801414.82046  -3309368.75444  22637494.2194   22637490.6764         40.7504
        28.5004
  -6801649.99246  -3769513.66844  22900157.3054   22900154.8984         39.7504
        27.5004
  -9754568.41046  -6878215.68446  22859995.3674   22859994.1214         40.5004
        37.7504
 21  2  1  3  9 30.0000000  0  6G31G26G25G12G29G10
 -10070547.93747  -8039877.67247  21920830.1024   21920825.8874         43.5004
        43.0004
   -166009.20355     -6930.48453  23968844.6024   23968842.0204         32.0004
        21.7504
 -19468314.03548 -15137161.65248  20015278.7344   20015277.2074         48.0004
        52.2504
  -4704014.82046  -3233472.68044  22656028.7114   22656025.0634         41.0004
        27.2504
  -6887805.51646  -3836647.78544  22883762.3444   22883759.9024         40.0004
        28.2504
  -9660955.05146  -6805270.28546  22877809.1954   22877808.4494         40.2504
        38.2504
 21  2  1  3 10  0.0000000  0  6G31G26G25G12G29G10
 -10126186.37547  -8083232.28946  21910242.3444   21910238.2034         42.7504
        41.5004
   -268193.50045    -86554.57443  23949397.6414   23949397.7584         30.0004
        21.7504
 -19434029.18447 -15110446.18448  20021802.8444   20021801.1764         47.2504
        52.0004
  -4606409.71146  -3157416.76244  22674602.4924   22674599.0434         40.5004
        28.0004
  -6973718.16446  -3903592.69144  22867414.8054   22867411.0004         41.5004
        28.0004
  -9567156.79747  -6732180.78546  22895658.5554   22895658.5744         42.0004
        39.7504
 21  2  1  3 10 30.0000000  0  6G31G26G25G12G29G10
 -10181665.09047  -8126462.46146  21899684.9224   21899680.6604         43.0004
        41.7504
   -370199.96145   -166040.14143  23929987.3754   23929985.8284         30.5004
        22.2504
 -19399246.98048 -15083343.17248  20028421.5864   20028419.8914         48.0004
        52.0004
  -4508601.64846  -3081202.70744  22693215.0084   22693210.9024         39.5004
        28.5004
  -7059384.67647  -3970345.78544  22851113.3984   22851109.2624         42.7504
        28.7504
  -9473176.82047  -6658949.64846  22913542.8054   22913541.7114         42.5004
        39.5004
 21  2  1  3 11  0.0000000  0  6G31G26G25G12G29G10
 -10236983.98447  -8169568.05947  21889158.7584   21889154.3204         44.0004
        42.7504
   -472027.24645   -245385.97343  23910611.6094   23910608.3054         30.5004
        20.5004
 -19363969.37547 -15055854.12148  20035134.7274   20035132.9264         47.5004
        51.7504
  -4410593.41846  -3004832.67244  22711865.5704   22711861.4264         40.5004
        28.0004
  -7144801.38347  -4036904.26244  22834858.0004   22834854.6414         42.0004
        29.0004
  -9379018.30146  -6585579.43046  22931460.5004   22931459.7384         40.7504
        38.5004
 21  2  1  3 11 30.0000000  0  6G31G26G25G12G29G10
 -10292143.03947  -8212549.13347  21878661.8444   21878658.0234         44.2504
        42.7504
                                  23891262.7424   23891265.4774         26.2504
        19.5004
 -19328198.33647 -15027980.57848  20041941.7664   20041940.2974         47.5004
        51.7504
  -4312387.68046  -2928308.74644  22730553.2894   22730548.9024         40.0004
        26.7504
  -7229965.55146  -4103265.90244  22818651.8984   22818647.6954         41.2504
        27.5004
  -9284684.58246  -6512072.70346  22949411.3754   22949410.7074         39.0004
        38.0004
 21  2  1  3 12  0.0000000  0  6G31G26G25G12G29G10
 -10347142.02047  -8255405.45746  21868195.6414   21868191.5044         42.5004
        41.7504
                                  23871955.0084   23871956.9804         26.7504
        17.7504
 -19291935.90248 -14999724.12548  20048842.4384   20048840.8634         48.2504
        52.0004
  -4213986.72746  -2851632.68744  22749278.4304   22749274.2274         39.0004
        27.2504
  -7314873.72346  -4169428.08244  22802494.7664   22802490.6764         40.2504
        28.5004
  -9190178.87146  -6438431.91446  22967395.0784   22967394.7974         41.0004
        38.2504
 21  2  1  3 12 30.0000000  0  6G31G26G25G12G29G10
 -10401981.07847  -8298137.18047  21857760.3524   21857755.9304         42.0004
        42.5004
                                  23852684.3444   23852683.2344         32.5004
        21.7504
 -19255184.03548 -14971086.31248  20055835.8984   20055834.4184         48.0004
        52.2504
  -4115393.34446  -2774806.70344  22768040.0084   22768035.3674         40.5004
        26.7504
  -7399522.73846  -4235388.34044  22786386.2974   22786383.2114         39.7504
        28.2504
  -9095504.35946  -6364659.62546  22985411.5234   22985410.7114         40.7504
        38.7504
 21  2  1  3 13  0.0000000  0  6G31G26G25G12G29G10
 -10456659.85547  -8340744.00847  21847355.0314   21847350.9804         43.2504
        42.0004
   -877512.39845   -561348.16443  23833446.5634   23833445.0664         31.5004
        21.2504
 -19217944.75447 -14942068.68748  20062922.1884   20062920.7074         47.0004
        52.0004
  -4016610.54346  -2697833.09444  22786838.3594   22786833.4774         39.0004
        26.7504
  -7483909.38346  -4301144.12144  22770327.2584   22770325.0904         38.5004
        27.5004
  -9000664.27346  -6290758.33646  23003458.3054   23003457.9924         39.0004
        37.7504
 21  2  1  3 13 30.0000000  0  6G31G26G25G12G29G10
 -10511178.51647  -8383226.05547  21836980.3984   21836976.0944         42.5004
        42.2504
                                  23814242.1954   23814243.1724         30.0004
        21.5004
 -19180220.14147 -14912672.87148  20070101.0474   20070099.5044         47.7504
        52.0004
  -3917640.76246  -2620713.80544  22805671.3364   22805667.1914         40.2504
        26.7504
  -7568030.63346  -4366693.10944  22754319.3524   22754317.2464         40.2504
        29.0004
  -8905661.86346  -6216730.55546  23021536.6484   23021536.7774         40.0004
        37.7504
 21  2  1  3 14  0.0000000  0  6G31G26G25G12G29G10
 -10565536.68047  -8425583.07847  21826637.1484   21826632.9844         43.7504
        44.0004
  -1079139.35255   -718459.81253  23795077.4064   23795077.5594         32.0004
        22.5004
 -19142012.17647 -14882900.43048  20077371.6254   20077370.2814         47.2504
        51.7504
  -3818486.87946  -2543451.06644  22824540.2194   22824535.0944         40.2504
        27.5004
  -7651882.85246  -4432032.47344  22738363.4924   22738360.1564         40.2504
        29.2504
  -8810500.36346  -6142578.81246  23039645.0634   23039645.0824         38.5004
        36.0004
 21  2  1  3 14 30.0000000  0  6G31G26G25G12G29G10
 -10619734.61347  -8467815.21947  21816323.3834   21816318.7274         43.7504
        42.5004
  -1179668.45745   -796794.14143  23775947.9924   23775947.5514         32.2504
        22.7504
 -19103322.94147 -14852752.96548  20084733.9224   20084732.0164         47.2504
        51.7504
  -3719151.12946  -2466046.59044  22843443.1024   22843438.6294         39.7504
        26.2504
  -7735463.10246  -4497159.94144  22722458.7734   22722455.5234         41.2504
        29.0004
  -8715182.99646  -6068305.59846  23057784.7504   23057783.5784         41.5004
        38.0004
 21  2  1  3 15  0.0000000  0  6G31G26G25G12G29G10
 -10673771.92247  -8509922.18447  21806040.6334   21806036.0474         44.0004
        42.7504
  -1280006.14155   -874979.27053  23756853.3674   23756853.3284         33.0004
        22.5004
 -19064154.50847 -14822232.09848  20092187.3524   20092185.8984         47.2504
        51.7504
  -3619635.65646  -2388502.10944  22862380.3834   22862376.0664         39.7504
        26.7504
  -7818768.34846  -4562073.12544  22706607.1334   22706603.5164         41.0004
        29.0004
  -8619713.02047  -5993913.44546  23075952.3674   23075950.9804         42.2504
        38.0004
 21  2  1  3 15 30.0000000  0  6G31G26G25G12G29G10
 -10727648.54747  -8551903.95747  21795787.3524   21795783.2504         43.5004
        42.5004
  -1380150.82045   -953014.12544  23737797.7894   23737796.8134         34.5004
        25.7504
 -19024508.91847 -14791339.43448  20099731.8834   20099730.1994         47.7504
        51.7504
  -3519943.59046  -2310819.99244  22881350.6174   22881346.6294         41.0004
        27.0004
  -7901795.21946  -4626769.36744  22690806.9144   22690803.1954         40.0004
        27.5004
  -8524093.60546  -5919404.82846  23094147.2194   23094146.1804         40.2504
        36.2504
 21  2  1  3 16  0.0000000  0  6G31G26G25G12G29G10
 -10781364.69947  -8593760.66447  21785566.0474   21785561.8014         43.2504
        43.0004
  -1480100.99645  -1030897.32844  23718776.2974   23718777.3714         33.5004
        25.0004
 -18984388.27748 -14760076.59448  20107366.5704   20107365.2544         48.2504
        52.0004
  -3420077.84846  -2233002.54744  22900355.0164   22900350.9694         41.2504
        27.0004
  -7984540.51246  -4691246.18744  22675060.5234   22675057.0704         40.0004
        28.5004
  -8428328.05146  -5844782.37545  23112370.5474   23112370.1804         39.5004
        34.5004
 21  2  1  3 16 30.0000000  0  6G31G26G25G12G29G10
 -10834920.29747  -8635492.29747  21775375.0164   21775370.6724         44.2504
        43.5004
  -1579855.20355  -1108627.78553  23699792.8524   23699794.5704         30.5004
        22.7504
 -18943794.70347 -14728445.23048  20115091.6094   20115090.1454         47.7504
        52.0004
  -3320040.63746  -2155051.50444  22919390.7974   22919387.3754         40.5004
        27.7504
  -8067001.03946  -4755501.13744  22659369.3054   22659366.4614         40.0004
        28.5004
  -8332419.39146  -5770048.39845  23130621.2424   23130621.3014         39.5004
        33.7504
 21  2  1  3 17  0.0000000  0  6G31G26G25G12G29G10
 -10888314.75447  -8677098.35547  21765213.9534   21765209.6724         44.0004
        43.2504
  -1679411.91844  -1186204.31643  23680849.1334   23680848.9344         29.5004
        22.5004
 -18902730.29347 -14696446.98848  20122905.7814   20122903.9384         47.7504
        51.5004
  -3219834.44547  -2076968.79744  22938460.0704   22938455.6024         42.0004
        27.2504
  -8149173.60546  -4819531.65644  22643731.8754   22643729.5704         39.0004
        28.5004
  -8236371.01646  -5695205.56246  23148898.8054   23148899.6724         39.7504
        36.0004
 21  2  1  3 17 30.0000000  0  6G31G26G25G12G29G10
 -10941548.20747  -8718578.94547  21755084.2034   21755080.0704         44.5004
        42.7504
  -1778769.78555  -1263625.96154  23661942.0164   23661942.2274         30.0004
        26.2504
 -18861197.18748 -14664083.52748  20130808.6414   20130807.2544         48.0004
        51.5004
  -3119462.09846  -1998756.59044  22957559.9144   22957555.9264         39.7504
        27.5004
  -8231055.04746  -4883335.35544  22628150.0474   22628146.5864         40.5004
        28.0004
  -8140186.09446  -5620256.29745  23167202.5554   23167201.3794         39.7504
        34.5004
 21  2  1  3 18  0.0000000  0  6G31G26G25G12G29G10
 -10994620.64847  -8759934.07047  21744984.7974   21744980.1214         44.7504
        43.5004
  -1877927.22755  -1340891.41054  23643073.0784   23643073.7704         31.0004
        26.5004
 -18819197.46548 -14631356.45748  20138801.3284   20138799.8094         48.0004
        50.5004
  -3018925.87546  -1920416.67244  22976691.5314   22976687.0664         39.7504
        25.7504
  -8312641.99646  -4946909.57844  22612625.2664   22612621.2424         40.2504
        28.7504
  -8043867.83246  -5545203.15245  23185531.6174   23185530.0594         40.0004
        33.0004
 21  2  1  3 18 30.0000000  0  6G31G26G25G12G29G10
 -11047531.70347  -8801163.44947  21734915.7114   21734912.1174         44.5004
        43.0004
                                  23624242.0634   23624242.5084         27.2504
        25.7504
 -18776733.30948 -14598267.50848  20146882.0314   20146880.5864         48.0004
        51.2504
  -2918228.37946  -1841951.14544  22995853.3524   22995849.0704         41.5004
        25.5004
  -8393931.85546  -5010252.29745  22597156.8754   22597153.3404         40.5004
        30.5004
  -7947419.50046  -5470048.67645  23203885.1414   23203884.6254         40.7504
        35.0004
 21  2  1  3 19  0.0000000  0  6G31G26G25G12G29G10
 -11100281.56647  -8842267.21547  21724878.4224   21724873.8444         44.7504
        42.7504
  -2075635.24254  -1494949.42254  23605451.2894   23605451.3244         28.5004
        25.0004
 -18733806.83647 -14564818.32048  20155050.6094   20155048.9964         47.7504
        51.2504
  -2817372.23846  -1763361.96144  23015045.8444   23015040.5744         40.5004
        25.0004
  -8474920.87946  -5073360.55945  22581743.8754   22581741.5664         40.7504
        30.5004
  -7850844.26246  -5394795.29345  23222262.9384   23222262.4804         40.5004
        35.5004
 21  2  1  3 19 30.0000000  0  6G31G26G25G12G29G10
 -11152869.97747  -8883245.19947  21714870.3984   21714866.6054         44.0004
        42.5004
  -2174182.86745  -1571739.64544  23586699.6094   23586697.7704         31.0004
        26.0004
 -18690420.29348 -14531010.61748  20163306.8524   20163305.6844         48.0004
        51.5004
  -2716359.88746  -1684651.05544  23034266.9844   23034262.2234         40.2504
        24.0004
  -8555606.08246  -5136232.09844  22566390.0554   22566387.5824         40.5004
        29.2504
  -7754145.23446  -5319445.47746  23240664.2424   23240663.0864         40.7504
        36.5004
 21  2  1  3 20  0.0000000  0  6G31G26G25G12G29G10
 -11205296.87147  -8924097.28947  21704894.1024   21704890.0164         44.5004
        43.2504
  -2272524.22745  -1648369.27344  23567982.7344   23567984.0514         31.7504
        26.0004
 -18646575.71548 -14496846.02748  20171650.3444   20171648.9224         48.0004
        51.5004
  -2615194.07846  -1605820.57044  23053519.4064   23053513.7234         40.5004
        25.2504
  -8635984.49246  -5198864.56244  22551094.8834   22551092.0664         40.7504
        28.5004
  -7657325.74246  -5244001.75845  23259087.7814   23259086.9264         40.0004
        35.5004
 21  2  1  3 20 30.0000000  0  6G31G26G25G12G29G10
 -11257561.98047  -8964823.33247  21694948.8594   21694944.5394         44.7504
        43.7504
  -2370657.98445  -1724837.16444  23549309.5704   23549309.7074         31.7504
        26.5004
 -18602275.35947 -14462326.26248  20180080.1484   20180078.5864         47.2504
        51.5004
  -2513877.10246  -1526872.29743  23072798.8054   23072793.5704         39.2504
        22.5004
  -8716052.83646  -5261255.45744  22535857.9924   22535854.7464         39.7504
        27.5004
  -7560388.90246  -5168466.64545  23277533.5394   23277533.7854         38.5004
        35.0004
 21  2  1  3 21  0.0000000  0  6G31G26G25G12G29G10
 -11309665.12547  -9005423.14847  21685033.3364   21685028.9844         44.5004
        43.2504
  -2468582.76645  -1801142.16044  23530674.5784   23530673.6764         34.2504
        25.5004
 -18557521.37547 -14427453.03948  20188596.5634   20188595.0944         47.5004
        51.5004
  -2412411.28546  -1447808.06244  23092107.8674   23092102.1054         38.2504
        25.0004
  -8795807.88346  -5323402.20344  22520681.5084   22520677.6954         41.2504
        28.7504
  -7463337.97746  -5092842.58645  23296002.6174   23296002.9574         40.0004
        34.7504
 21  2  1  3 21 30.0000000  0  6G31G26G25G12G29G10
 -11361606.28147  -9045896.76647  21675149.3134   21675145.0204         44.2504
        43.5004
  -2566297.15245  -1877283.19144  23512080.7424   23512079.8284         34.2504
        28.0004
 -18512315.98848 -14392228.06648  20197198.9694   20197197.0864         48.0004
        51.5004
  -2310799.46146  -1368630.03143  23111443.7344   23111437.9344         40.2504
        23.2504
  -8875246.50447  -5385302.38745  22505564.9384   22505561.2344         42.2504
        30.7504
  -7366176.11746  -5017132.12545  23314492.3444   23314492.0274         39.5004
        34.0004
 21  2  1  3 22  0.0000000  0  6G31G26G25G12G29G10
 -11413385.65247  -9086244.32047  21665296.5314   21665291.5704         45.2504
        43.2504
  -2663799.63345  -1953259.11744  23493526.8054   23493527.6844         33.0004
        28.5004
 -18466661.41847 -14356653.07048  20205886.5234   20205885.3244         47.7504
        51.5004
  -2209044.23846  -1289340.26644  23130806.3134   23130801.8634         40.0004
        24.2504
  -8954365.72346  -5446953.68744  22490509.1024   22490506.1294         41.7504
        29.7504
  -7268906.48446  -4941337.65245  23333001.8984   23333001.3754         38.7504
        33.5004
 21  2  1  3 22 30.0000000  0  6G31G26G25G12G29G10
 -11465002.69147  -9126465.38347  21655473.6414   21655470.2154         44.5004
        44.2504
  -2761088.85945  -2029068.84044  23475012.4694   23475013.4304         31.7504
        29.5004
 -18420559.82447 -14320729.75848  20214659.6414   20214657.9654         46.7504
        51.5004
  -2107147.94546  -1209940.61744  23150196.7584   23150192.0084         40.2504
        24.5004
  -9033162.39847  -5508353.64845  22475514.6724   22475510.7504         43.2504
        30.7504
  -7171532.28546  -4865461.69145  23351531.4224   23351531.3484         37.5004
        34.0004
 21  2  1  3 23  0.0000000  0  6G31G26G25G12G29G10
 -11516457.19947  -9166559.78547  21645682.7664   21645678.8634         45.5004
        44.5004
  -2858163.53545  -2104711.31644  23456539.0784   23456541.0354         34.2504
        29.5004
 -18374013.48447 -14284459.87948  20223516.9304   20223515.2274         47.5004
        51.5004
  -2005112.73446  -1130432.66444  23169614.0864   23169609.8554         40.0004
        25.5004
  -9111633.53947  -5569499.93045  22460581.8914   22460578.9494         42.7504
        30.0004
  -7074056.74646  -4789506.77345  23370080.4614   23370081.1294         36.5004
        34.2504
 21  2  1  3 23 30.0000000  0  6G31G26G25G12G29G10
 -11567749.26647  -9206527.61747  21635921.4224   21635917.2504         44.5004
        44.0004
  -2955022.03145  -2180185.44945  23438109.1484   23438107.5164         35.2504
        31.0004
 -18327024.59047 -14247845.14848  20232458.6254   20232456.8594         47.5004
        51.5004
  -1902941.15646  -1050818.46544  23189055.9224   23189052.1724         40.2504
        25.0004
  -9189775.77347  -5630389.93045  22445711.7034   22445708.1644         43.2504
        31.5004
  -6976482.94946  -4713475.29745  23388648.5084   23388648.7154         37.7504
        34.0004
 21  2  1  3 24  0.0000000  0  6G31G26G25G12G29G10
 -11618878.80547  -9246368.79347  21626191.6724   21626187.6764         44.7504
        43.7504
  -3051663.11346  -2255490.17245  23419718.3284   23419716.7504         38.5004
        30.2504
 -18279595.38747 -14210887.32048  20241484.5704   20241482.5904         47.5004
        51.5004
  -1800635.61346   -971099.85944  23208524.1564   23208520.8284         40.5004
        25.7504
  -9267586.07846  -5691021.30145  22430904.8134   22430901.4614         41.5004
        30.7504
  -6878814.14846  -4637369.84445  23407234.7274   23407234.5634         37.5004
        33.0004
 21  2  1  3 24 30.0000000  0  6G31G26G25G12G29G10
 -11669845.51247  -9286083.09847  21616493.0554   21616488.9224         43.7504
        43.2504
  -3148085.33245  -2330624.34444  23401368.8754   23401368.3284         35.0004
        29.2504
 -18231728.10547 -14173588.13348  20250592.9304   20250591.5594         47.0004
        51.2504
  -1698199.32846   -891279.39844  23228017.3054   23228013.7504         40.7504
        24.5004
  -9345061.46147  -5751391.68745  22416161.2734   22416158.4774         42.7504
        30.7504
  -6781053.45346  -4561192.74644  23425837.2894   23425837.4964         36.5004
        26.5004
 21  2  1  3 25  0.0000000  0  6G31G26G25G12G29G10
 -11720649.03947  -9325670.23447  21606825.6414   21606821.3914         44.5004
        43.5004
  -3244287.39545  -2405586.93044  23383061.2584   23383062.2234         32.2504
        28.5004
 -18183425.05947 -14135949.39548  20259785.0944   20259783.1024         47.2504
        51.2504
  -1595634.12146   -811358.50443  23247534.9774   23247530.9574         40.2504
        23.7504
  -9422198.93747  -5811498.78145  22401483.3204   22401479.2624         42.5004
        30.7504
  -6683204.09846  -4484946.57444  23444457.7424   23444457.2664         37.7504
        26.5004
 21  2  1  3 25 30.0000000  0  6G31G26G25G12G29G10
 -11771289.36747  -9365130.20747  21597189.4614   21597185.2114         44.5004
        44.5004
  -3340267.93755  -2480376.87154  23364797.0554   23364798.2304         31.7504
        29.0004
 -18134688.43047 -14097972.79348  20269058.9384   20269057.7814         47.5004
        51.0004
  -1492942.47746   -731339.05544  23267077.0864   23267072.2814         39.7504
        24.0004
  -9498995.08247  -5871339.90244  22386868.8524   22386865.2234         43.2504
        29.2504
  -6585269.22346  -4408633.71943  23463094.2974   23463094.0984         38.0004
        21.5004
 21  2  1  3 26  0.0000000  0  6G31G26G25G12G29G10
 -11821766.39847  -9404462.94947  21587583.2114   21587580.1994         44.0004
        44.0004
  -3436025.57845  -2554993.13345  23346576.3594   23346575.7504         34.2504
        30.7504
 -18085520.53948 -14059660.14848  20278415.4454   20278414.0004         48.0004
        51.0004
  -1390126.69946   -651222.90643  23286641.4534   23286637.1174         40.0004
        22.2504
  -9575446.92247  -5930912.73444  22372320.7194   22372316.9064         42.5004
        29.5004
  -6487251.85946  -4332256.62143  23481746.5084   23481746.7344         36.7504
        22.0004
 21  2  1  3 26 30.0000000  0  6G31G26G25G12G29G10
 -11872079.85247  -9443668.21947  21578009.3914   21578005.4494         45.0004
        44.0004
  -3531558.87545  -2629434.63345  23328396.8204   23328396.7704         33.7504
        31.7504
 -18035923.65247 -14021013.22748  20287853.2894   20287851.6644         47.7504
        51.0004
  -1287189.13746   -571011.84443  23306230.1334   23306225.2934         39.5004
        22.5004
  -9651551.41847  -5990214.89845  22357838.6334   22357835.1844         42.0004
        30.2504
  -6389155.29745  -4255817.80943  23500413.1254   23500413.4144         33.7504
        20.7504
 21  2  1  3 27  0.0000000  0  6G31G26G25G12G29G10
 -11922229.51247  -9482745.85547  21568466.5864   21568462.4534         44.7504
        44.2504
  -3626866.62946  -2703700.37145  23310260.3754   23310261.4414         36.2504
        34.2504
 -17985900.04347 -13982033.78548  20297372.4614   20297370.8284         47.7504
        51.0004
  -1184132.66846   -490708.12143  23325840.6254   23325836.4344         39.5004
        23.0004
  -9727305.35547  -6049243.90645  22343422.6094   22343419.8094         42.5004
        32.0004
  -6290982.69546  -4179319.73443  23519095.2894   23519095.0314         37.0004
        21.5004
 21  2  1  3 27 30.0000000  0  6G31G26G25G12G29G10
 -11972215.47347  -9521695.93447  21558954.4384   21558949.9804         45.2504
        44.2504
  -3721947.46946  -2777789.27745  23292167.0394   23292167.6684         36.5004
        33.0004
 -17935451.96547 -13942723.59448  20306972.5474   20306970.7304         47.0004
        50.7504
  -1080959.34846   -410313.34843  23345474.0314   23345470.2584         39.0004
        22.5004
  -9802705.81247  -6107997.46945  22329075.2664   22329071.3984         42.7504
        32.7504
  -6192737.09846  -4102764.80143  23537790.9534   23537790.7344         36.5004
        20.7504
 21  2  1  3 28  0.0000000  0  6G31G26G25G12G29G10
 -12022037.52347  -9560518.28547  21549473.0004   21549469.2894         45.5004
        44.2504
  -3816800.11746  -2851700.39845  23274117.0634   23274117.0164         37.2504
        33.0004
 -17884581.77047 -13903084.47348  20316652.8284   20316651.2814         46.5004
        50.7504
   -977671.55546   -329829.39543  23365129.5004   23365125.4614         39.5004
        22.7504
  -9877749.96147  -6166473.39845  22314794.6804   22314791.3954         43.2504
        32.0004
  -6094421.69546  -4026155.45343  23556499.4844   23556500.3134         38.7504
        21.5004
 21  2  1  3 28 30.0000000  0  6G31G26G25G12G29G10
 -12071695.28547  -9599212.64547  21540023.8364   21540018.5864         44.7504
        43.7504
  -3911423.19546  -2925432.60245  23256111.2034   23256111.3714         36.5004
        32.5004
 -17833291.71947 -13863118.20348  20326413.1024   20326411.1684         46.5004
        51.0004
   -874271.59846   -249258.02744  23384805.3204   23384802.2464         39.5004
        24.0004
  -9952434.64547  -6224669.21145  22300582.1724   22300579.1054         42.2504
        31.7504
  -5996039.64546  -3949494.17643  23575221.0704   23575221.2424         39.2504
        21.2504
 21  2  1  3 29  0.0000000  0  6G31G26G25G12G29G10
 -12121188.66447  -9637778.90647  21530605.7194   21530601.1884         45.5004
        44.0004
  -4005815.44545  -2998984.93745  23238148.2734   23238148.2344         35.5004
        31.5004
 -17781584.14547 -13822826.58248  20336252.8984   20336250.8524         46.5004
        50.5004
   -770761.76246   -168601.03143  23404503.3834   23404499.1804         40.0004
        22.7504
 -10026756.74247  -6282582.50445  22286439.5634   22286435.2734         42.5004
        31.5004
  -5897594.04746  -3872783.37943  23593954.9454   23593954.3244         38.0004
        20.5004
 21  2  1  3 29 30.0000000  0  6G31G26G25G12G29G10
 -12170517.41047  -9676216.86747  21521218.5784   21521214.1844         45.0004
        44.7504
  -4099975.55145  -3072356.40245  23220230.2114   23220231.5554         34.5004
        33.0004
 -17729461.35947 -13782211.43448  20346170.7424   20346169.7424         47.0004
        50.7504
   -667144.84046    -87860.57443  23424220.5314   23424216.0904         38.7504
        22.7504
 -10100713.33247  -6340210.99645  22272365.9774   22272362.1094         42.0004
        31.5004
  -5799087.97346  -3796025.47343  23612699.3524   23612700.0904         38.0004
        20.2504
 21  2  1  3 30  0.0000000  0  6G31G26G25G12G29G10
 -12219681.24247  -9714526.34047  21511862.7734   21511858.7274         45.7504
        44.7504
  -4193902.08646  -3145545.86745  23202356.7584   23202357.1914         36.0004
        32.5004
 -17676925.64147 -13741274.50848  20356168.6024   20356166.6954         46.2504
        50.5004
   -563423.09046     -7038.44943  23443957.5554   23443953.9924         39.0004
        22.2504
 -10174301.35947  -6397552.28545  22258361.9924   22258359.1564         42.0004
        31.2504
  -5700524.66446  -3719222.96543  23631455.1884   23631455.7114         37.2504
        18.2504
